stop_id,stop_name,stop_lat,stop_lon,census_tract_id
00000020,Kennedy Rd S n/of First Gulf Blvd,43.673257,-79.718469,5350570.01
00000030,Kennedy Rd s/of Steeles Ave,43.675159,-79.72171,5350570.01
00000060,Rutherford Rd s/of Bramsteele Rd,43.681968,-79.718981,5350570.01
00000070,Rutherford Rd S n/of Bramsteele Rd,43.683807,-79.721458,5350570.01
00000080,Rutherford Rd S at Glidden Rd,43.686334,-79.725066,5350570.01
00000090,Rutherford Rd S at Selby Rd,43.689013,-79.72896,5350570.01
00000100,Rutherford Rd S opp Stafford Rd,43.690237,-79.730618,5350570.01
00000110,Rutherford Rd S at Clarence St,43.691459,-79.731882,5350570.01
00000120,Orenda Rd e/of Rutherford Rd S,43.695114,-79.73276,5350570.01
00000130,Orenda Rd btwn Rutherford Rd S & Heart Lake Rd,43.695702,-79.729801,5350570.01
00000140,Orenda Rd opp Heart Lake Rd,43.696757,-79.727831,5350570.01
00000150,Orenda Rd opp Tilbury Crt,43.697323,-79.725029,5350562.13
00000160,Orenda Rd at 237 Orenda Rd,43.697068,-79.72267,5350562.13
00000170,Orenda Rd at Titan Rd,43.69808,-79.720259,5350562.13
00000180,West Dr n/of Orenda Rd,43.699876,-79.718366,5350562.13
00000190,West Dr s/of Clark Blvd ( 55 West Dr ),43.702724,-79.723127,5350562.13
00000200,Clark Blvd e/of West Dr,43.704702,-79.726936,5350562.13
00000210,Clark Blvd at 185 Clark Blvd,43.706436,-79.725026,5350562.13
00000220,Clark Blvd at Terese Rd,43.70923,-79.724078,5350562.13
00000222,Queen St E btwn Torbram Rd & Gateway Blvd,43.73617,-79.704012,5350576.79
00000230,Clark Blvd at Braemar Dr,43.711451,-79.721512,5350563.02
00000235,Clark Blvd at Briar Path,43.713219,-79.720048,5350563.02
00000270,Clark Blvd at Lisa St,43.709748,-79.724024,5350562.12
00000280,Clark Blvd opp 185 Clark Blvd,43.705847,-79.726028,5350562.12
00000290,Clark Blvd at West Dr,43.704774,-79.727214,5350562.12
00000300,West Dr s/of Clark Blvd,43.703897,-79.726877,5350562.13
00000308,West Dr at 60 West Dr,43.703243,-79.724485,5350562.13
00000310,West Dr at Norpak Whse,43.701521,-79.721492,5350562.13
00000320,West Dr s/of Orenda Rd,43.699126,-79.717846,5350562.13
00000330,Glidden Rd w/of West Dr,43.69483,-79.713756,5350562.13
00000340,Glidden Rd at Blair Dr,43.693625,-79.715444,5350562.13
00000350,Glidden Rd at Heart Lake Rd,43.691648,-79.718268,5350562.13
00000360,Glidden Rd w/of Heart Lake Rd,43.689773,-79.720893,5350570.01
00000365,Hale Rd s/of Glidden Rd,43.687312,-79.722975,5350570.01
00000370,Glidden Rd at Hale Rd,43.688501,-79.722687,5350570.01
00000371,Hale Rd btwn Glidden Rd & Bramsteele Ave,43.686027,-79.721239,5350570.01
00000372,Hale Rd n/of Bramsteele Ave,43.684192,-79.718177,5350570.01
00000373,Bramsteele Ave e/of Rutherford Rd,43.683237,-79.718494,5350570.01
00000410,Rutherford Rd S at Steeles Ave E,43.680933,-79.717993,5350570.01
00000420,First Gulf Blvd n/of Biscayne Cres (N),43.679438,-79.715877,5350570.01
00000430,First Gulf Blvd at Biscayne Cres S,43.677124,-79.713402,5350570.01
00000440,First Gulf Blvd btwn Biscayne Cres (S) and Kennedy,43.674483,-79.715878,5350570.01
00000460,Hereford St s/of Steeles Ave,43.622217,-79.780921,5350528.53
00000461,Heritage - Zum Steeles Station Stop EB,43.617924,-79.785976,5350528.53
00000466,Heritage - Zum Steeles Station Stop WB,43.617184,-79.787371,5350576.91
00000469,Winston Churchill - Zum Steeles Station Stop EB,43.608098,-79.796937,5350528.53
00000470,Mississauga Road - Zum Steeles Station Stop EB,43.62782,-79.775184,5350528.53
00000510,Steeles Ave W at Churchville Rd,43.639747,-79.762015,5350528.52
00000520,Steeles Ave W at Clementine Dr,43.643685,-79.757659,5350528.52
00000530,Steeles Ave W btwn Mavis Rd & Windmill Blvd,43.649578,-79.751152,5350528.31
00000535,Steeles Ave btwn Clementine Dr and Mavis Rd,43.645282,-79.755836,5350528.52
00000540,Mavis - Zum Steeles Station Stop EB,43.647339,-79.753535,5350528.31
00000550,Steeles Ave W at Windmill Blvd,43.653268,-79.747021,5350528.31
00000560,Steeles Ave W at McLaughlin Rd S,43.656006,-79.74387,5350528.31
00000610,Steeles Ave E btwn Hurontario St & Hartford Tr,43.670455,-79.728063,5350528.2
00000620,Steeles Ave E at Hartford Trail,43.673,-79.725318,5350528.2
00000670,Steeles Ave E btwn Tomken Rd & Dixie Rd,43.692357,-79.70409,5350562.13
00000680,Steeles Ave w/of Dixie Rd,43.694267,-79.701943,5350562.13
00000700,Steeles Ave e/of Advance Blvd,43.698744,-79.696521,5350561.0
00000730,Steeles Ave E at Melanie Dr (W),43.710072,-79.68431,5350560.0
00000740,Steeles Ave E at Melanie Dr (E),43.712018,-79.682116,5350560.0
00000760,Steeles Ave opp Pearson Convention Centre,43.721796,-79.671021,5350576.79
00000780,Steeles Ave E opp Parkhurst Sq,43.726459,-79.665664,5350576.78
00000790,Steeles Ave E at 3389 Steeles Ave E,43.730908,-79.660502,5350576.78
00000800,Steeles Ave E at Goreway Dr,43.732727,-79.65842,5350576.78
00000810,Goreway Dr s/of Steeles Ave E,43.732258,-79.657241,5350576.78
00000830,Kenview Blvd e/of Goreway Dr,43.730828,-79.653569,5350576.78
00000840,Kenview Blvd at 5 Kenview Blvd,43.732225,-79.652079,5350576.78
00000850,Kenview Blvd at 11 Kenview Blvd,43.734576,-79.651319,5350576.78
00000900,Kenview Blvd e/of Castleview Dr (19 Kenview Blvd),43.7369,-79.6506,5350576.78
00000910,Kenview Blvd at Parkshore Dr,43.738431,-79.645311,5350576.78
00000920,Finch Ave n/of Kenview Blvd,43.740512,-79.644078,5350576.78
00000930,Finch Ave s/of Steeles Ave,43.74265,-79.646979,5350576.78
00000940,Albion Rd s/of Steeles Ave,43.7493,-79.638861,5350576.78
00000941,Steeles Ave w/of Hwy 50,43.74951,-79.639531,5350576.78
00001100,Finch Ave n/of Longo Circle,43.735845,-79.637104,5350576.78
00001110,Kenview Blvd w/of Finch Ave,43.739552,-79.644298,5350576.78
00001115,Kenview Blvd w/of Parkshore Dr,43.738496,-79.645548,5350576.78
00001120,Kenview Blvd at 26 Kenview Blvd,43.738123,-79.648884,5350576.78
00001130,Kenview Blvd at 14 Kenview Blvd,43.735587,-79.651223,5350576.78
00001140,Kenview Blvd at Paget Rd,43.734285,-79.651626,5350576.78
00001150,Kenview Blvd at Goreway Dr,43.730642,-79.654162,5350576.78
00001170,Goreway Dr at Steeles Ave E,43.732859,-79.657418,5350576.78
00001180,Steeles Ave E at Parkhurst Sq,43.727176,-79.665411,5350576.78
00001230,Steeles Ave E w/of Melanie Dr (E),43.71175,-79.682953,5350560.0
00001235,Steeles Ave E w/of Melanie Dr (W),43.710007,-79.684932,5350560.0
00001260,Steeles Ave w/of Advance Blvd,43.698202,-79.697824,5350561.0
00001280,Steeles Ave E btwn Dixie Rd & West Dr,43.692759,-79.704133,5350562.13
00001315,Steeles Ave E e/of Resolution Dr,43.678405,-79.719987,5350570.01
00001320,Steeles Ave e/of Kennedy Rd,43.676125,-79.722478,5350570.01
00001340,Steeles Ave E at Orchard Dr,43.673526,-79.725254,5350570.01
00001345,Fletchers Creek Blvd at Gold Hill Rd,43.689387,-79.801253,5350573.11
00001350,Steeles Ave E at 152 Steeles Ave,43.670919,-79.728094,5350570.02
00001430,Steeles Ave W at Tait Blvd,43.653912,-79.746827,5350572.08
00001440,Steeles Ave W at Beaconsfield walkway,43.649108,-79.752183,5350572.08
00001450,Steeles Ave W at Chinguacousy Rd,43.647359,-79.75415,5350572.08
00001460,Steeles Ave W w/of James Potter Dr,43.643963,-79.757787,5350576.9
00001465,Steeles Ave W at Polonia Ave,43.642083,-79.759987,5350576.9
00001470,Steeles Ave at Churchville Rd,43.640358,-79.761767,5350576.9
00001490,Steeles Ave W e/of Financial Dr,43.633746,-79.769172,5350576.91
00001500,Financial - Zum Steeles Station Stop WB,43.631767,-79.771344,5350576.91
00001508,Mississauga Road - Zum Steeles Station Stop WB,43.626831,-79.77688,5350576.91
00001510,Mississauga Rd s/of Steeles Ave,43.626788,-79.775535,5350528.53
00001520,Mississauga Rd n/of Edgeware Rd,43.623434,-79.771047,5350528.53
00001530,Hereford St w/of Mississauga Rd,43.620547,-79.768579,5350528.53
00001540,Hereford St s/of Ironbridge Rd,43.618516,-79.767462,5350528.53
00001550,Hereford St w/of President's Choice Cir (Loblaws),43.617118,-79.768241,5350528.53
00001560,Hereford St btwn President's Choice Cir & Edgeware,43.615558,-79.771769,5350528.53
00001570,Hereford St n/of Edgeware Rd,43.619017,-79.776526,5350528.53
00001575,Hereford St btwn Edgeware Rd & Steeles Ave,43.620511,-79.778551,5350528.53
00001640,Kensington Rd e/of Central Park Dr,43.720217,-79.719842,5350563.01
00001650,Kensington Rd at Kingscross Rd,43.72116,-79.71879,5350563.01
00001660,Kensington Rd opp Bramalea Medical Centre,43.722037,-79.717277,5350563.01
00001670,Kensington Rd at Bramalea Rd,43.722824,-79.715934,5350563.01
00001680,Bramalea Rd at Knightsbridge Rd - Rte 12 ONLY,43.721791,-79.71406,5350563.01
00001720,Finchgate Blvd at Feston Place,43.726267,-79.709158,5350564.02
00001730,Finchgate Blvd at Queen St E,43.727544,-79.712249,5350564.02
00001740,Glenvale Blvd s/of Gatwick Lane,43.729168,-79.714538,5350562.09
00001750,Glenvale Blvd n/of Greenmount Rd,43.730592,-79.715682,5350562.09
00001760,Glenvale Blvd at Geraldine Crt,43.73295,-79.716623,5350562.09
00001770,Central Park Dr btwn Glenvale Blvd and Graham Crt,43.733973,-79.7183,5350562.08
00001780,Grenoble Blvd at Central Park Dr,43.733251,-79.720908,5350562.08
00001790,Grenoble Blvd at Glencastle Square,43.734688,-79.721558,5350562.08
00001800,Grenoble Blvd at Gladstone Square,43.736173,-79.721539,5350562.08
00001810,Grenoble Blvd at Greenbriar Rd,43.737422,-79.722803,5350562.08
00001815,Grenoble Blvd at Williams Pky E,43.738502,-79.724933,5350562.08
00001840,Jordan Blvd at Joshua Crt,43.742081,-79.728894,5350562.07
00001850,Jordan Blvd at Jameson Cres,43.743762,-79.730125,5350562.07
00001860,Jordan Blvd s/of North Park Dr,43.744451,-79.731592,5350562.07
00001870,North Park Dr at Jayfield Rd,43.746387,-79.729903,5350562.07
00001880,North Park Dr opp Panda Lane,43.748289,-79.727588,5350562.07
00001890,Torbram Rd at Blue Diamond Dr,43.751976,-79.730465,5350576.79
00001910,Torbram Rd n/of Bovaird Dr E,43.755108,-79.734617,5350576.22
00001920,Torbram Rd s/of Peter Robertson Blvd,43.756344,-79.736365,5350576.22
00001930,Torbram Rd n/of Peter Robertson Blvd,43.758859,-79.739807,5350576.22
00001935,Torbram Rd btwn Peter Robertson Blvd & Steeplebush,43.760476,-79.741966,5350576.22
00001940,Torbram Rd at Eagleridge Rd,43.76142,-79.743165,5350576.22
00001945,Torbram Rd btwn Eagleridge Dr & Sandalwood Pky E,43.763159,-79.745545,5350576.22
00002005,Mountainberry Rd at Mount Ranier Cres,43.761116,-79.729791,5350576.22
00002010,Mountainberry Rd w/of Mount Rainer Cres (W),43.761667,-79.72703,5350576.22
00002020,Mountainberry Rd e/of Mount Rainer Cres (E),43.763403,-79.725754,5350576.22
00002030,Mountainberry Rd at Snow Leopard Crt (S),43.764776,-79.726992,5350576.22
00002040,Mountainberry Rd n/of Black Hills Crt,43.76626,-79.72859,5350576.22
00002050,Mountainberry Rd w/of Snow Leopard Crt (N),43.766051,-79.731343,5350576.22
00002060,Mountainberry Rd at Cougar Crt,43.764887,-79.73291,5350576.22
00002070,Mountainash Rd at Mountainberry Rd,43.764283,-79.734604,5350576.22
00002110,Bovaird Dr E w/of Mountainash Rd,43.757695,-79.730659,5350576.22
00002120,Torbram Rd at Bovaird Dr E,43.75499,-79.734972,5350576.46
00002125,Torbram Rd s/of Bovaird Dr E,43.753672,-79.733189,5350562.06
00002130,Torbram Rd at Prospect Gate,43.752113,-79.73109,5350562.06
00002140,Torbram Rd at North Park Dr,43.749453,-79.727497,5350562.06
00002150,North Park Dr at Panda Lane,43.748349,-79.727831,5350562.06
00002160,North Park Dr at Provincial Place,43.746818,-79.729722,5350562.06
00002165,North Park Dr btwn Provincial Pl & Jamieson Cres,43.745504,-79.731306,5350562.06
00002170,Jordan Blvd at North Park Dr,43.744323,-79.731737,5350562.07
00002180,Jordan Blvd at Joyce Gate,43.74298,-79.72959,5350562.07
00002190,Jordan Blvd at Jefferson Rd,43.740184,-79.727563,5350562.07
00002210,Grenoble Blvd at Glenforest Rd,43.737453,-79.723225,5350562.08
00002220,Grenoble Blvd at Grasspoint Square,43.735689,-79.72171,5350562.08
00002230,Grenoble Blvd n/of Central park Dr,43.73364,-79.721452,5350562.08
00002240,Central Park Dr e/of Greenarrow Crt,43.73356,-79.718835,5350562.09
00002250,Glenvale Blvd s/of Geraldine Crt,43.732319,-79.716713,5350562.09
00002260,Glenvale Blvd at Goldcrest Rd,43.730373,-79.715764,5350562.09
00002270,Glenvale Blvd at Gatwick Rd,43.729264,-79.714876,5350562.09
00002280,Finchgate Blvd s/of Queen St E,43.727643,-79.712759,5350564.02
00002290,Finchgate Blvd n/of Clark Blvd,43.726047,-79.70894,5350564.02
00002350,Kensington Rd w/of Bramalea Rd,43.722391,-79.71694,5350563.01
00002360,Kensington Rd at Kings Cross Rd,43.721741,-79.718392,5350563.01
00002370,Kensington Rd at Central Park Dr,43.72063,-79.719729,5350563.01
00002390,Central Park Dr at Knightsbridge Rd,43.718001,-79.71791,5350563.01
00002410,Knightsbridge Rd w/of Central Park Drive,43.717559,-79.717953,5350563.01
00002430,Bramalea Rd n/of Steeles Ave E,43.705553,-79.691834,5350560.0
00002450,Bramalea Rd at East Dr,43.706748,-79.693537,5350560.0
00002460,Bramalea Rd n/of East Dr,43.707983,-79.695182,5350560.0
00002470,Avondale Blvd at Autumn Blvd,43.70857,-79.697173,5350561.0
00002475,Avondale Blvd at Avondale Plaza,43.707183,-79.698752,5350561.0
00002490,Avondale Blvd at Aloma Cres (E),43.706378,-79.700401,5350561.0
00002500,Avondale Blvd w/of Aloma Cres (W),43.704543,-79.7017,5350561.0
00002510,Avondale Blvd w/of Athlone Ave (S),43.704276,-79.703224,5350561.0
00002540,Dixie Rd s/of Clark Blvd,43.710095,-79.722081,5350562.13
00002550,Dixie Rd at Terese Rd,43.708166,-79.71947,5350562.13
00002560,Balmoral Dr e/of Dixie Rd,43.70657,-79.715128,5350561.0
00002570,Balmoral Dr at Braemar Dr,43.707841,-79.714173,5350561.0
00002580,Balmoral Dr opp Brookland Dr,43.709092,-79.712638,5350561.0
00002590,Avondale Blvd s/of Balmoral Dr,43.709881,-79.710584,5350561.0
00002600,Avondale Blvd at Brentwood Dr,43.707065,-79.709094,5350561.0
00002610,Avondale Blvd at Birchbank Rd,43.704562,-79.706009,5350561.0
00002620,Avondale Blvd at 135 Avondale Blvd,43.704011,-79.703916,5350561.0
00002630,Avondale Blvd opp Aloma Cres (W),43.704967,-79.701073,5350561.0
00002640,Avondale Blvd at Victoria Park Arena,43.706604,-79.69966,5350561.0
00002650,Avondale Blvd btwn Birchbank Rd & Athlone Ave,43.704712,-79.705973,5350561.0
00002660,Avondale Blvd at Addington Cres,43.70653,-79.708219,5350561.0
00002670,Avondale Blvd at Balmoral Dr,43.710161,-79.710717,5350561.0
00002680,Balmoral Dr at Brookland Dr,43.709477,-79.712381,5350563.02
00002690,Balmoral Dr e/of Braemar Dr,43.708383,-79.713925,5350563.02
00002700,Balmoral Dr at Dixie Rd,43.706145,-79.715847,5350563.02
00002710,Dixie Rd opp Terese Rd,43.708141,-79.71887,5350563.02
00002720,Dixie Rd at Clark Blvd,43.710581,-79.722202,5350563.02
00002735,Gore Meadows CC - Route 50/50A SB Stop,43.79368,-79.69559,5350576.73
00002740,Avondale Blvd at Bramalea Rd,43.708691,-79.696745,5350561.0
00002750,Bramalea Rd s/of East Dr,43.707138,-79.694391,5350561.0
00002760,Bramalea Rd at Orenda Rd,43.706051,-79.692944,5350561.0
00002995,Torbram Rd at 7795 Torbram (Peel Waste Facility),43.709727,-79.673247,5350576.79
00003000,Torbram Rd s/of Steeles Ave,43.713879,-79.678776,5350576.79
00003010,Torbram Rd n/of Steeles Ave E,43.714993,-79.680245,5350576.79
00003020,Torbram Rd at Walker Dr,43.71694,-79.683297,5350576.79
00003030,Torbram Rd n/of Bramhurst Ave,43.720205,-79.6878,5350576.79
00003040,Torbram Rd opp 8458 Torbram Rd,43.722591,-79.69103,5350576.79
00003050,Torbram Rd at 8555 Torbram Rd,43.725125,-79.694382,5350576.79
00003055,Torbram Rd s/of Clark Blvd,43.727244,-79.697243,5350576.79
00003070,Torbram Rd at 8705 Torbram Rd,43.729824,-79.700778,5350576.79
00003075,Torbram Rd at 8875 Torbram Rd,43.731071,-79.702472,5350576.79
00003080,Torbram Rd at Queen St E,43.733682,-79.705922,5350576.79
00003100,Torbram Rd at Corporation Dr,43.738309,-79.712208,5350576.79
00003110,Torbram Rd opp Gatewood Dr,43.742195,-79.717404,5350576.79
00003120,Torbram Rd s/of Williams Pky,43.743779,-79.719436,5350576.79
00003130,Torbram Rd opp Jardine St,43.746993,-79.723785,5350576.79
00003140,Torbram Rd n/of North Park Dr,43.749464,-79.727116,5350576.79
00003355,Torbram Rd btwn Sandalwood Pky E and Steeplebush,43.763298,-79.746204,5350576.45
00003360,Torbram Rd at Steeplebush Ave,43.761682,-79.744018,5350576.45
00003370,Torbram Rd btwn Steeplebush Ave & Peter Robertson,43.758676,-79.739913,5350576.46
00003380,Torbram Rd at Peter Robertson Blvd,43.757071,-79.737752,5350576.46
00003430,Torbram Rd at Jardine St,43.746902,-79.72407,5350562.07
00003440,Torbram Rd at Williams Pky,43.744332,-79.720627,5350562.07
00003450,Torbram Rd at Gatewood Dr,43.742173,-79.717765,5350562.08
00003460,Torbram Rd at Central Park Dr,43.738788,-79.713256,5350562.08
00003470,Torbram Rd n/of Grenadier Rd,43.736407,-79.7101,5350562.09
00003475,Torbram Rd s/of Grenadier Rd,43.736167,-79.709342,5350576.79
00003480,Torbram Rd s/of Queen St E,43.733533,-79.706197,5350564.02
00003500,Torbram Rd opp 8875 Torbram Rd,43.731353,-79.703207,5350564.02
00003510,Torbram Rd opp 8705 Torbram Rd,43.729547,-79.700736,5350564.02
00003520,Torbram Rd n/of Clark Blvd,43.727539,-79.698067,5350564.02
00003530,Torbram Rd at 8500 Torbram Rd,43.724678,-79.694166,5350560.0
00003540,Torbram Rd at 8460 Torbram Rd,43.722111,-79.690732,5350560.0
00003550,Torbram Rd s/of Balmoral Dr,43.719366,-79.687039,5350560.0
00003560,Torbram Rd at East Dr,43.717184,-79.684099,5350560.0
00003570,Torbram Rd n/of Steeles Ave,43.714762,-79.680551,5350560.0
00003580,Torbram Rd s/of Steeles Ave E,43.713558,-79.67884,5350560.0
00003590,7795 Torbram Rd at Waste Management,43.710209,-79.674344,5350560.0
00003810,Bramalea Rd n/of Dearbourne Blvd,43.709281,-79.696904,5350560.0
00003820,Bramalea Rd opp Alexandria Gate,43.711182,-79.69947,5350560.0
00003830,Bramalea Rd opp Algonquin Blvd,43.713566,-79.70266,5350560.0
00003840,Bramalea Rd at Balmoral Dr,43.715354,-79.705022,5350560.0
00003850,Bramalea Rd at Clark Blvd,43.719647,-79.71078,5350564.01
00003864,Knightsbridge Rd w/of Bramalea Rd,43.7212,-79.714346,5350563.01
00003865,Knightsbridge Rd btwn Kings Cross & Central Pk Dr,43.718865,-79.716507,5350563.01
00003900,Knightsbridge Rd btwn Central Park & Kings Cross,43.719187,-79.715893,5350563.01
00003910,Knightsbridge Rd at Bramalea Rd,43.721034,-79.714231,5350563.01
00003930,Bramalea Rd at Queen St E,43.724066,-79.716638,5350564.02
00003940,Bramalea Rd n/of Queen St E,43.725028,-79.717974,5350562.09
00003950,Bramalea Rd at Goodwood Rd,43.727458,-79.721258,5350562.09
00003960,Bramalea Rd n/of Central Park Dr,43.730205,-79.724881,5350562.08
00003970,Bramalea Rd s/of Williams Pky E (Salvation Army),43.733048,-79.728745,5350562.08
00003980,Bramalea Rd at Williams Pky E,43.733866,-79.729773,5350562.08
00003990,Bramalea Rd n/of Jackson Rd,43.736151,-79.732827,5350562.07
00004000,Bramalea Rd at North Park Dr,43.738865,-79.73651,5350562.07
00004030,Bramalea Rd s/of Bovaird Dr,43.743578,-79.742885,5350562.06
00004040,Bramalea Rd n/of Bovaird Dr E,43.745298,-79.745102,5350576.2
00004050,Bramalea Rd n/of Peter Robertson Blvd,43.746837,-79.747268,5350576.2
00004060,Bramalea Rd btwn Peter Robertson Blvd & Larkspur R,43.748102,-79.749014,5350576.2
00004070,Bramalea Rd at Larkspur Rd,43.750281,-79.751939,5350576.2
00004080,Bramalea Rd n/of Larkspur Rd,43.75213,-79.754465,5350576.2
00004090,Bramalea Rd s/of Sandalwood Pky,43.753941,-79.756902,5350576.2
00004095,Bramalea Rd at Heslop Cir,43.762877,-79.768879,5350576.54
00004100,Bramalea Rd s/of Countryside Dr,43.764026,-79.770447,5350576.54
00004105,Countryside Dr w/of Bramalea Rd,43.763905,-79.771482,5350576.84
00004106,Countryside Dr opp Everingham Cir,43.76228,-79.773273,5350576.84
00004107,Countryside Dr e/of Fairservice Dr,43.76096,-79.774705,5350576.84
00004108,Countryside Dr w/of Fernforest Dr,43.758222,-79.777318,5350576.59
00004140,Fernforest Dr at Kalahari Rd,43.751322,-79.76545,5350576.59
00004180,Bramalea Rd s/of Sandalwood Pky E,43.7524,-79.755202,5350576.17
00004190,Bramalea Rd at Black Forest Dr,43.750786,-79.753073,5350576.17
00004200,Bramalea Rd btwn Black Forest Dr & Peter Robertson,43.748561,-79.750017,5350576.17
00004220,Bramalea Rd at Bovaird Dr,43.744668,-79.744858,5350576.17
00004225,Bramalea Rd at Peter Robertson Blvd,43.746661,-79.747507,5350576.17
00004240,Bramalea Rd at Marlbourough St,43.741214,-79.740062,5350562.03
00004250,Bramalea Rd s/of North Park Dr,43.738498,-79.73648,5350562.04
00004260,Bramalea Rd at Markham St,43.735834,-79.732837,5350562.04
00004270,Bramalea Rd s/of Williams Pky E,43.733607,-79.729878,5350562.05
00004275,Bramalea Rd btwn Williams Pkwy E & Central Park Dr,43.731467,-79.726999,5350562.05
00004280,Bramalea Rd at Central Park Dr,43.729933,-79.724956,5350562.05
00004290,Bramalea Rd n/of Goodwood Rd ( Chinguacousy Park ),43.727603,-79.721794,5350562.05
00004400,Bramalea Rd s/of Clark Blvd,43.719374,-79.71081,5350563.02
00004410,Bramalea Rd n/of Balmoral Dr,43.71552,-79.705658,5350563.02
00004420,Bramalea Rd at Algonquin Blvd,43.713437,-79.702829,5350561.0
00004430,Bramalea Rd at Alexandria Gate,43.711196,-79.699823,5350561.0
00004440,Bramalea Rd at Avondale Blvd,43.708981,-79.69688,5350561.0
00004720,Bramalea Rd s/of Dewside Dr,43.75715,-79.761122,5350576.54
00004780,Dearbourne Blvd opp Dorset Dr (e/of Bramalea Rd),43.709906,-79.695064,5350560.0
00004790,Dearbourne Blvd opp Delmere Rd,43.712703,-79.692052,5350560.0
00004800,Dearbourne Blvd at Deerfield Cres (S),43.714044,-79.691547,5350560.0
00004810,Dearbourne Blvd opp Dorchester Dr,43.715462,-79.691781,5350560.0
00004820,Dearbourne Blvd opp Devonshire Dr,43.717327,-79.692194,5350560.0
00004830,Balmoral Dr w/of Dearbourne Blvd,43.719367,-79.693169,5350560.0
00004840,Balmoral Dr at Drake Blvd,43.720167,-79.694654,5350560.0
00004850,Eastbourne Dr n/of Balmoral Dr,43.722029,-79.697316,5350560.0
00004860,Eastbourne Dr s/of Enderby Cres,43.723358,-79.698198,5350560.0
00004870,Eastbourne Dr opp Evesham Cres (s/of Clark Blvd),43.725197,-79.699549,5350560.0
00005080,Eastbourne Dr at Evesham Cres (E),43.725129,-79.699753,5350564.01
00005090,Eastbourne Dr s/of Evesham Cres (Recreation Cen),43.723312,-79.698407,5350564.01
00005100,Eastbourne Dr at Balmoral Dr,43.722138,-79.697588,5350564.01
00005110,Balmoral Dr at Deloraine Dr,43.720296,-79.695276,5350560.0
00005120,Balmoral Dr at Dearbourne Blvd,43.71931,-79.693463,5350560.0
00005130,Dearbourne Blvd at Devonshire Dr,43.717061,-79.692352,5350560.0
00005140,Dearbourne Blvd s/of Dorchester Dr,43.715192,-79.691924,5350560.0
00005160,Dearbourne Blvd at Delmere Rd,43.713055,-79.692084,5350560.0
00005170,Dearbourne Blvd at Dorset Dr (e/of Bramalea Rd),43.710057,-79.69518,5350560.0
00005260,Hanover Rd w/of Hartnell Sq,43.720785,-79.724984,5350562.05
00005270,Hanover Rd opp Helena Crt,43.718012,-79.728077,5350562.05
00005280,Hanover Rd opp Hasting Square,43.718797,-79.729596,5350562.05
00005290,Hanover Rd s/of Howden Blvd,43.720169,-79.731421,5350562.05
00005300,Howden Blvd e/of Dixie Rd,43.719017,-79.734576,5350562.02
00005310,Howden Blvd opp Heath Dr,43.718355,-79.737691,5350562.02
00005320,Howden Blvd at Vodden Rd E,43.717123,-79.741461,5350562.02
00005330,Howden Blvd at Ladin Dr,43.718192,-79.744029,5350562.02
00005340,Howden Blvd at Leander St,43.719364,-79.745495,5350562.02
00005350,North Park Dr n/of Williams Pwky E,43.720718,-79.747156,5350562.14
00005360,North Park Dr s/of Northampton St,43.722381,-79.749987,5350562.14
00005370,North Park Dr at Neptune Crt,43.723854,-79.753438,5350562.14
00005380,Nasmith St n/of North Park Dr,43.727035,-79.754445,5350562.14
00005390,Nasmith St at Nevada Crt,43.728267,-79.75701,5350562.14
00005400,Nasmith St at Newport St,43.729026,-79.758026,5350562.14
00005410,Nasmith St at Bovaird Dr E,43.730127,-79.759501,5350562.14
00005450,Great Lakes Dr n/of Bovaird Dr,43.730522,-79.76047,5350576.93
00005460,Nasmith St n/of Niagara Pl,43.728189,-79.757155,5350562.15
00005470,North Park Dr w/of Nasmith St,43.726531,-79.754199,5350562.15
00005480,North Park Dr at Nuffield St,43.724049,-79.753899,5350562.15
00005490,North Park Dr opp Northampton St,43.72244,-79.750671,5350562.15
00005500,North Park Dr n/of Williams Pky E,43.720961,-79.747932,5350562.15
00005510,Howden Blvd s/of Williams Pky E,43.719672,-79.746222,5350562.02
00005520,Howden Blvd at La France Rd,43.718331,-79.744514,5350562.02
00005530,Howden Blvd at Vodden St,43.716918,-79.741928,5350562.02
00005540,Howden Blvd at Heath Dr,43.718132,-79.738324,5350562.02
00005550,Howden Blvd at Dixie Rd,43.718931,-79.734266,5350562.02
00005560,Howden Blvd at Hanover Rd,43.720196,-79.732468,5350562.05
00005570,Hanover Rd at Homeland Crt,43.719229,-79.730474,5350562.05
00005580,Hanover Rd at Helena Crt,43.717884,-79.728367,5350562.05
00005590,Hanover Rd opp Huntingwood Cres,43.720251,-79.725191,5350562.05
00005955,Dixie Rd at 407 Sportsplex,43.68476,-79.686921,5350561.0
00005960,Dixie Rd s/of Advance Blvd,43.69062,-79.694769,5350561.0
00005970,Dixie Rd at Steeles Ave E,43.694897,-79.700538,5350561.0
00005980,Dixie Rd n/of Steeles Ave,43.695848,-79.701941,5350561.0
00005990,Dixie Rd btwn Steeles Ave E and Orenda Rd,43.697537,-79.704688,5350561.0
00006000,Dixie Rd n/of Orenda Rd,43.700219,-79.708195,5350561.0
00006010,Dixie Rd at Birchbank Rd,43.701597,-79.710161,5350561.0
00006020,Dixie Rd s/of Balmoral Dr,43.705785,-79.715749,5350561.0
00006080,Dixie Rd at Lisa St (BCC Mall Entrance),43.713086,-79.725493,5350563.01
00006090,Dixie Rd n/of Queen St E,43.715878,-79.729175,5350562.05
00006100,Dixie Rd opp Hazelwood Dr,43.718152,-79.732273,5350562.05
00006110,Dixie Rd n/of Howden Blvd,43.719699,-79.734292,5350562.11
00006120,Dixie Rd at Crescent Hill Dr,43.721092,-79.736149,5350562.11
00006130,Dixie Rd opp Lascelles Blvd,43.723715,-79.739694,5350562.11
00006140,Dixie Rd n/of Williams Pky E,43.725714,-79.742366,5350562.04
00006150,Dixie Rd at Mansion St,43.727037,-79.744147,5350562.04
00006160,Dixie Rd at North Park Dr,43.729792,-79.747799,5350562.04
00006170,Dixie Rd n/of Moregate Cres,43.732734,-79.75185,5350562.03
00006175,Dixie Rd btwn North Park and Moregate Cres,43.731405,-79.750022,5350562.03
00006180,Dixie Rd n/of Bovaird Dr E,43.735395,-79.755274,5350576.16
00006185,Dixe Rd btwn Bovaird Dr and Peter Robertson Blvd,43.736946,-79.757526,5350576.16
00006190,Dixie Rd at Peter Robertson Blvd,43.738669,-79.759817,5350576.16
00006200,Dixie Rd n/of Peter Robertson Blvd,43.73988,-79.76148,5350576.16
00006210,Dixie Rd btwn Peter Robertson Blvd and Springtown,43.741206,-79.763258,5350576.16
00006220,Dixie Rd at Springtown Trail,43.7428,-79.765389,5350576.16
00006230,Dixie Rd at Sandalwood Pky E,43.745045,-79.768412,5350576.16
00006235,Dixie Rd n/of Sandalwood Pky,43.745851,-79.769571,5350576.59
00006240,Dixie Rd btwn Sandalwood Pky E & Octillo Blvd,43.747085,-79.771215,5350576.59
00006250,Dixie Rd at Octillo Blvd,43.748079,-79.772566,5350576.59
00006253,Dixie Rd at Father Tobin Rd,43.751958,-79.777861,5350576.59
00006255,Dixie Rd n/of Octillo Blvd,43.749399,-79.774422,5350576.59
00006258,Dixie Rd n/of Father Tobin Rd,43.753169,-79.779466,5350576.59
00006260,Countryside Dr e/of Dixie Rd,43.75481,-79.781048,5350576.59
00006262,Countryside Dr w/of Moira Creek Dr,43.75616,-79.779572,5350576.59
00006310,Fernforest Dr at Sandalwood Pky,43.750121,-79.764102,5350576.59
00006330,Dixie Rd s/of Sandalwood Pky E,43.744611,-79.768408,5350576.93
00006340,Dixie Rd opp Springtown Trail,43.743211,-79.766498,5350576.93
00006350,Dixie Rd btwn Springtown Trail and Peter Robertson,43.74097,-79.763448,5350576.93
00006360,Dixie Rd n/of Guru Nanak St,43.738753,-79.760511,5350576.93
00006370,Dixie Rd at 10078 Dixie Rd,43.736247,-79.757035,5350576.93
00006380,Dixie Rd s/of Bovaird Dr E,43.734161,-79.754342,5350562.14
00006390,Dixie Rd at Northcliffe St,43.732348,-79.751806,5350562.14
00006400,Dixie Rd btwn Northcliffe St and North Park Dr,43.731203,-79.750196,5350562.14
00006410,Dixie Rd s/of North Park Dr,43.729448,-79.747821,5350562.14
00006420,Dixie Rd at Northampton St,43.727168,-79.744829,5350562.14
00006550,Dixie Rd at Balmoral Dr (Rogers),43.705935,-79.716447,5350562.13
00006560,Dixie Rd at 8200 Dixie Rd,43.703248,-79.71293,5350562.13
00006570,Dixie Rd s/of Orenda Rd (N),43.701071,-79.710125,5350562.13
00006575,Dixie Rd at Orenda Rd (S),43.699928,-79.70831,5350562.13
00006576,Dixie Rd btwn Orenda Rd & Steeles Ave E,43.697792,-79.705713,5350562.13
00006580,Dixie Rd at 8000 Dixie Rd,43.695563,-79.702256,5350562.13
00006590,Dixie Rd s/of Steeles Ave E,43.69409,-79.700109,5350562.13
00006600,Dixie Rd n/of Advance Blvd,43.691356,-79.696483,5350562.13
00006740,Hilldale Cres at Hayden Crt,43.725701,-79.729435,5350562.11
00006750,Hilldale Cres opp Holley Hedge Crt,43.725517,-79.731386,5350562.11
00006770,Hilldale Cres at Hyde Park Crt,43.727507,-79.731108,5350562.11
00006780,Hilldale Cres opp Hallcrown Crt,43.729131,-79.729375,5350562.05
00006790,Hilldale Cres opp Hedley Crt,43.729352,-79.727173,5350562.05
00006820,Williams Pky E at Mackay St S,43.731222,-79.733608,5350562.04
00006830,Mackay St S n/of Williams Pky E,43.73161,-79.734424,5350562.04
00006840,Mackay St S n/of Manorcrest St,43.733484,-79.737458,5350562.04
00006850,Mackay St S at Guildford Cres (S),43.734107,-79.739695,5350562.04
00006860,Mackay St N at Morley Cres (S),43.735333,-79.743448,5350562.03
00006870,Mackay St N at McMullen Cres,43.73581,-79.746984,5350562.03
00006880,Mackay St N n/of Massey St,43.737016,-79.749089,5350562.03
00006890,Mackay St N at Bovaird Dr E,43.737976,-79.750709,5350562.03
00006900,Fernforest Dr n/of Homewood St,43.739487,-79.753046,5350576.17
00006930,Fernforest Dr n/of Blackforest Dr,43.74562,-79.757751,5350576.17
00006940,Fernforest Dr n/of Deerglen Dr,43.747419,-79.760199,5350576.17
00006950,Fernforest Dr s/of Sandalwood Pky,43.749542,-79.762944,5350576.17
00006990,Great Lakes Dr at Harold M. Braithwaite S.S,43.737711,-79.77062,5350576.93
00007110,Sandalwood Pky w/of Fernforest Dr,43.749717,-79.763846,5350576.16
00007120,Fernforest Dr at Hollybush St,43.749125,-79.762726,5350576.16
00007130,Fernforest Dr s/of Rainforest Dr,43.747462,-79.760469,5350576.16
00007140,Fernforest Dr at Black Oak Dr,43.74528,-79.757508,5350576.16
00007240,Mackay St S s/of Malabar Cres,43.733932,-79.739649,5350562.04
00007270,Williams Pky E e/of Mackay St S,43.731595,-79.732775,5350562.05
00007280,Williams Pky E at Bramalea Rd  (North Peel S.S.),43.733091,-79.731047,5350562.05
00007320,Hilldale Cres at Hedley Crt,43.729482,-79.727051,5350562.05
00007330,Hilldale Cres at Hallcrown Crt,43.729252,-79.729519,5350562.05
00007340,Hilldale Cres btwn Homer Sq and Horatio Crt,43.727478,-79.73142,5350562.11
00007360,Hilldale Cres at Hollyhedge Crt,43.725364,-79.731438,5350562.11
00007370,Hilldale Cres s/of Hector Crt,43.725605,-79.728864,5350562.11
00007455,Major William Sharpe Dr e/of Chinguacousy Rd,43.676794,-79.794583,5350573.09
00007460,Major William Sharpe Dr w/of Alloway Gate,43.677795,-79.792859,5350573.09
00007470,Major William Sharpe Dr s/of Castlehill Rd,43.677935,-79.79084,5350573.09
00007480,Major William Sharpe Dr n/of Murdoch Dr,43.677063,-79.789239,5350573.09
00007490,Major William Sharpe Dr at Flowertown Ave,43.675797,-79.787987,5350573.09
00007500,Flowertown Ave w/of Phelps Dr,43.676529,-79.785889,5350573.05
00007510,Flowertown Ave w/of Grange St,43.677739,-79.784313,5350573.05
00007520,Flowertown Ave w/of Cumbrian Crt,43.679251,-79.782545,5350573.05
00007530,Flowertown Ave e/of Fairfield Ave,43.680864,-79.78073,5350573.05
00007535,Flowertown Ave w/of McLaughlin Rd N,43.682142,-79.779261,5350573.05
00007600,Queen St W opp Mercer Dr,43.677832,-79.76863,5350572.01
00007610,Queen St W e/of Haggart Ave S,43.679234,-79.767084,5350572.01
00007620,McMurchy - Zum Queen West Station Stop EB,43.680653,-79.765508,5350572.01
00007630,Queen St W at Mill St S,43.682887,-79.763066,5350574.0
00007640,Queen St W at Elizabeth St S,43.683869,-79.762014,5350574.0
00007650,George St n/of Diplock Lane,43.685779,-79.76175,5350574.0
00007675,Queen St E e/of Chapel St,43.687404,-79.758142,5350574.0
00007680,Queen St E w/of James St,43.689123,-79.756213,5350574.0
00007700,Queen St E at Trueman St,43.692694,-79.752537,5350571.01
00007710,Queen St E opp Beech St,43.693454,-79.751687,5350571.01
00007730,Queen St E btwn Kennedy Rd N & Hansen Rd,43.697293,-79.74737,5350570.01
00007740,Queen St E e/of Hansen Rd,43.699022,-79.745395,5350570.01
00007750,Queen St btwn Hansen Rd & Rutherford Rd,43.699881,-79.744432,5350570.01
00007790,West Drive s/of Queen St E,43.70808,-79.733301,5350562.12
00007800,West Dr n/of Clark Blvd (100 West Dr),43.705632,-79.729635,5350562.12
00007970,Delta Park Blvd s/of Queen St - 1A,43.745552,-79.691867,5350576.78
00007980,Delta Park Blvd at 170 Delta Park Blvd - 1A,43.743691,-79.690618,5350576.78
00007990,Delta Park Blvd at Nevets Rd - 1A,43.742562,-79.689937,5350576.78
00007995,Nevets Rd at Airport - 1A,43.74125,-79.692045,5350576.78
00008000,Coventry Rd w/of Airport Rd - 1A,43.740613,-79.692993,5350576.79
00008020,Conventry Rd at Walker Dr,43.738869,-79.69536,5350576.79
00008030,Walker Dr at 299 Walker Dr ( Bell Building ) - 1A,43.739239,-79.697384,5350576.79
00008040,Walker Rd at Gateway Blvd - 1A,43.737914,-79.698902,5350576.79
00008050,Gateway Blvd at Queen St E - 1A,43.738254,-79.700337,5350576.79
00008070,Queen St E w/of Tim Hortons (2433 Queen St E),43.736448,-79.704334,5350576.79
00008200,West Dr at 83 West Dr,43.705708,-79.729296,5350562.12
00008210,West Dr at 115 West Dr,43.707824,-79.732443,5350562.12
00008245,Queen St E at 300 Queen St E,43.700155,-79.744648,5350575.04
00008250,Queen St E w/of Hansen Rd,43.69852,-79.746508,5350575.04
00008260,Queen St E btwn Hansen Rd & Kennedy Rd N,43.697342,-79.747843,5350575.04
00008280,Queen St E at Beech St,43.693939,-79.751551,5350575.02
00008290,Queen St E at 164 Queen St,43.692585,-79.753035,5350575.02
00008310,Queen St E w/of Scott St,43.689419,-79.756277,5350574.0
00008320,Queen St E e/of Theatre Lane,43.687299,-79.758516,5350574.0
00008340,George St opp Diplock Lane,43.685426,-79.761521,5350574.0
00008350,Queen St W at Mill St N,43.683694,-79.762473,5350574.0
00008360,Queen St W at Park St,43.68272,-79.763555,5350574.0
00008370,McMurchy - Zum Queen West Station Stop WB,43.680472,-79.76604,5350573.07
00008380,Queen St W at Haggert Ave N,43.679199,-79.767412,5350573.07
00008390,Queen St W at Mercer Dr,43.677935,-79.768806,5350573.07
00008400,McLaughlin - Zum Queen West Station Stop WB,43.675742,-79.771301,5350573.05
00008410,Queen St W e/of Kimbark Dr,43.672954,-79.774387,5350573.05
00008430,Major William Sharpe Dr n/of Burgby Ave,43.671533,-79.782989,5350573.05
00008440,Major William Sharpe Dr opp Candy Cres (S),43.672868,-79.785205,5350573.05
00008450,Flowertown Ave w/of Major William Sharpe Dr,43.675613,-79.788279,5350573.09
00008460,Flowertown Ave at Chinguacousy Rd,43.673927,-79.791041,5350573.09
00008500,McLaughlin Rd s/of Steeles Ave W,43.656288,-79.743238,5350528.21
00008510,Steeles Ave W e/of McLaughlin Rd S (Sheridan Ent),43.657777,-79.74194,5350528.21
00008550,McMurchy - Zum Steeles Station Stop WB,43.661472,-79.738423,5350572.05
00008581,Charolais Blvd e/of Hodgson St,43.668796,-79.739476,5350572.05
00008582,Charolais Blvd e/of Mill St,43.6675,-79.741737,5350572.05
00008590,Mill St S at Campkin St,43.669094,-79.743101,5350572.05
00008600,Mill St S at Elgin Dr,43.67157,-79.745003,5350572.05
00008610,Elgin St opp Armbro Dr,43.670665,-79.747228,5350572.01
00008620,Elgin St at McMurchy Ave,43.669022,-79.748879,5350572.01
00008630,McMurchy Ave at Ambleside Dr,43.669974,-79.750352,5350572.01
00008640,McMurchy Ave S opp Kingsview Blvd,43.672618,-79.753954,5350572.01
00008650,McMurchy Ave S n/of Harold St,43.674916,-79.757078,5350572.01
00008660,McMurchy Ave S n/of Frederick St,43.676558,-79.759277,5350574.0
00008670,McMurchy Ave S opp McHardy Place,43.678107,-79.7614,5350574.0
00008680,McMurchy Ave s/of Jessie St,43.680135,-79.764153,5350574.0
00008690,McMurchy Ave S at Queen St W,43.680805,-79.765038,5350574.0
00008700,McMurchy Ave N at Nelson St,43.682191,-79.766783,5350574.0
00008710,McMurchy Ave N at Denison Ave,43.683467,-79.768527,5350574.0
00008720,Railroad St e/of McMurchy Ave N,43.684891,-79.770096,5350574.0
00008730,Railroad St at West St,43.685533,-79.769738,5350574.0
00008740,Railroad St w/of Mill St,43.686163,-79.766686,5350574.0
00008770,Railroad St e/of Mill St,43.686335,-79.766352,5350574.0
00008780,Railroad St opp West St,43.685718,-79.769325,5350574.0
00008790,McMurchy Ave N s/of Railroad St,43.684091,-79.769619,5350573.07
00008800,McMurchy Ave N s/of Denison Ave,43.683207,-79.768396,5350573.07
00008805,McMurchy Ave N at Nelson St W,43.682435,-79.76736,5350573.07
00008810,McMurchy Ave N at Queen St W,43.681241,-79.765826,5350573.07
00008820,McMurchy Ave S at Royce Ave,43.679488,-79.763465,5350572.01
00008830,McMurchy Ave S at McHardy Place,43.678023,-79.761625,5350572.01
00008840,McMurchy Ave S at Corby Cres,43.676639,-79.759706,5350572.01
00008850,McMurchy Ave S s/of Harold St,43.674398,-79.75668,5350572.01
00008860,McMurchy Ave S s/of Kingsview Blvd,43.67246,-79.754107,5350572.01
00008870,McMurchy Ave n/of Ambleside Dr,43.670339,-79.751215,5350572.01
00008880,Elgin St opp Trotters Ln,43.669034,-79.74859,5350572.05
00008890,Elgin St at Armbro Ave,43.670449,-79.747164,5350572.05
00008900,Elgin St at Mill St S,43.671663,-79.745707,5350572.05
00008910,Mill St S at Grand Circuit Crt,43.671316,-79.744922,5350572.05
00008920,Mill St S at Howell St,43.669384,-79.74335,5350572.05
00008930,Charolais Blvd e/of Mill Street,43.667706,-79.74123,5350572.05
00008932,Charolais Blvd w/of Main St,43.668929,-79.738848,5350572.05
00008940,McMurchy Ave S s/of Charolais Blvd,43.664737,-79.743509,5350572.04
00008950,McMurchy Ave S at Keystone Dr,43.663261,-79.741551,5350572.04
00008960,McMurchy Ave S s/of Peelton Heights Rd,43.661828,-79.739638,5350572.04
00009000,Steeles Ave W opp Bernard Ave,43.659929,-79.740175,5350572.04
00009020,McLaughlin Rd S at Holland Christian Homes,43.65507,-79.741941,5350528.31
00009060,Main St S at Bartley Bull Pky,43.667932,-79.735507,5350570.02
00009065,Main St opp Charolais Blvd,43.66959,-79.737813,5350570.02
00009070,Main St S n/of Peel Village Pky,43.671736,-79.740763,5350571.02
00009080,Main St opp Elgin Dr,43.673499,-79.743151,5350571.02
00009090,Nanwood - Zum Main Station Stop NB,43.677265,-79.748065,5350571.02
00009100,Main St S btwn Nanwood Dr & Harold St,43.678629,-79.750005,5350571.02
00009110,Main St at Clarence St,43.680161,-79.752081,5350571.02
00009120,Main St S n/of Guest St,43.681341,-79.753663,5350574.0
00009130,Main St S n/of Woodbrook Dr (St. Mary Church),43.683254,-79.756208,5350574.0
00009140,Wellington - Zum Main Station Stop NB,43.684397,-79.75775,5350574.0
00009150,Main St N n/of Queen St E,43.686112,-79.760113,5350574.0
00009155,Main St n/of Nelson St E,43.687671,-79.76215,5350574.0
00009160,Theatre Lane - Zum Main Station Stop NB,43.687392,-79.761815,5350574.0
00009170,Main St s/of Church St,43.688043,-79.76272,5350574.0
00009180,Main St N at Alexander St,43.68908,-79.764089,5350574.0
00009190,Main St at Sproule Dr,43.691066,-79.766767,5350574.0
00009195,Vodden - Zum Main Station Stop NB,43.692804,-79.76904,5350574.0
00009210,Main St s/of English St,43.694537,-79.771366,5350575.01
00009220,Main St N at Layham Gate,43.696209,-79.773606,5350575.01
00009230,Williams - Zum Main Station Stop NB,43.698568,-79.776718,5350575.01
00009235,Main St N btwn Layham Gate & Williams Pky E,43.69765,-79.775592,5350575.01
00009250,Main St N at Brickyard Way,43.70078,-79.779768,5350575.05
00009265,Main St N btwn Brickyard Way & Quarry Edge Dr,43.702148,-79.781735,5350575.05
00009270,Main St N at Quarry Edge Dr,43.703363,-79.783347,5350575.05
00009277,Main St s/of Bovaird Dr,43.705168,-79.785693,5350575.05
00009280,Bovaird - Zum Main Station Stop NB,43.706584,-79.787571,5350576.07
00009300,Hurontario St at Wexford Rd,43.709736,-79.791893,5350576.07
00009310,Hurontario St at Tremblay St,43.712453,-79.795573,5350576.07
00009320,Hurontario St opp Fisherman Dr,43.715026,-79.798973,5350576.07
00009330,Sandalwood Pkwy e/of Main St,43.71832,-79.802312,5350576.07
00009350,Sandalwood Pky E at Sunforest Dr,43.720585,-79.799867,5350576.07
00009360,Sandalwood Pky E at 95 Sandalwood (Firestation),43.722585,-79.797758,5350576.07
00009380,Conestoga Dr opp Loafers Lake Lane,43.726117,-79.79796,5350576.09
00009390,Heart Lake Terminal Route 2 Stop,43.727918,-79.798011,5350576.09
00009415,Conestoga Dr opp Mondragon Circle,43.729642,-79.796869,5350576.09
00009420,Sandalwood Pky E w/of Kennedy Rd N,43.727636,-79.794317,5350576.09
00009430,Sandalwood Pky E w/of Conestoga Dr,43.725202,-79.796654,5350576.09
00009440,Sandalwood Pky E opp 95 Sandalwood Pky E (Firestat,43.72297,-79.797784,5350576.33
00009450,Sandalwood Pky E at Braidwood Lake Rd,43.721023,-79.799768,5350576.33
00009460,Sandalwood Pky E w/of Braidwood Lake Rd,43.719975,-79.800905,5350576.33
00009470,Sandalwood Pky E at Hurontario St,43.718165,-79.802881,5350576.33
00009475,Sandalwood - Zum Main Station Stop SB,43.717308,-79.80268,5350576.07
00009480,Hurontario St at Fisherman Dr,43.715114,-79.799702,5350576.07
00009490,Hurontario St n/of Tremblay St,43.712565,-79.796225,5350576.07
00009500,Hurontario St s/of Wexford Rd,43.70907,-79.791483,5350576.07
00009510,Hurontario St at 10086 Hurontario St (Stitches Out,43.707435,-79.789331,5350576.07
00009520,Hurontario St at Bovaird Dr W,43.706286,-79.787816,5350576.07
00009530,Bovaird - Zum Main Station Stop SB,43.70496,-79.785993,5350573.03
00009540,Main St N at Gillingham Dr,43.703529,-79.784019,5350573.03
00009550,Main St N btwn Gillingham Dr & Brickyard Way,43.701473,-79.781164,5350573.03
00009560,Main St s/of Brickyard Way,43.69995,-79.779077,5350573.03
00009580,Williams - Zum Main Station Stop SB,43.698287,-79.776905,5350573.03
00009590,Main St N at Archibald St,43.696388,-79.774211,5350573.03
00009600,Main St at English St,43.694723,-79.771964,5350573.03
00009610,Vodden - Zum Main Station Stop SB,43.692624,-79.769182,5350573.03
00009620,Main St N at Rosedale Ave,43.691152,-79.767144,5350573.03
00009630,Main St N s/of David St,43.690002,-79.7656,5350574.0
00009640,Main St at Church St,43.688255,-79.763306,5350574.0
00009650,Nelson - Zum Main Station Stop SB,43.687315,-79.761995,5350574.0
00009660,Main St N at Queen St W,43.68601,-79.760249,5350574.0
00009670,Wellington - Zum Main Station Stop SB,43.684823,-79.758638,5350574.0
00009680,Main St S opp Woodbrook Dr,43.682732,-79.75581,5350574.0
00009700,Main St opp Clarence St,43.680391,-79.752644,5350572.01
00009715,Main St S btwn Harold St & Nanwood Dr,43.678329,-79.749913,5350572.01
00009720,Nanwood - Zum Main Station Stop SB,43.676302,-79.747298,5350572.01
00009730,Main St at Elgin Dr,43.673604,-79.743771,5350572.01
00009740,Main St opp Peel Village Pkwy,43.671228,-79.74058,5350572.05
00009750,Main St at Charolais Blvd,43.669998,-79.738859,5350572.05
00009760,Main St S at Bartley Bull Pkwy,43.667601,-79.735719,5350572.05
00009770,Hurontario St at Lancashire Ln (School Special),43.664838,-79.731981,5350528.21
00009780,Sir Lou - Zum Main Station Stop SB,43.661193,-79.727079,5350528.21
00009785,Ray Lawson - Zum Main Station Stop SB,43.658696,-79.723783,5350528.21
00009790,County Court Blvd e/of Hurontario St,43.65952,-79.722193,5350528.2
00009800,County Court Blvd e/of Havelock Dr-School Special,43.660421,-79.721198,5350528.2
00009810,County Court Blvd n/of Havelock Dr (E),43.661724,-79.72028,5350528.2
00009820,County Court Blvd at Mossbank Dr,43.663665,-79.721013,5350528.2
00009830,County Court Blvd at Seminole Dr,43.664439,-79.723741,5350528.2
00009840,County Court Blvd at Turtlecreek Blvd,43.662888,-79.726159,5350528.2
00009867,Clark Blvd w/of Peel Centre Dr,43.714309,-79.71967,5350563.01
00009875,Clark Blvd w/of Central Park Dr,43.715563,-79.718013,5350563.02
00009880,Clark Blvd opp Kings Cross Rd,43.718487,-79.712897,5350563.02
00009885,Central Park Dr n/of Clark Blvd,43.717429,-79.716314,5350563.01
00009890,Clark Blvd at Edenborough Dr,43.720721,-79.710049,5350564.01
00009895,Central Park Dr s/of Knightsbridge Rd,43.717319,-79.716765,5350563.01
00009900,Clark Blvd at Earnscliffe Gate,43.722986,-79.709148,5350564.01
00009910,Clark Blvd e/of Esplanade Rd,43.724839,-79.708325,5350564.01
00009920,Clark Blvd e/of Finchgate Blvd,43.72629,-79.707681,5350564.01
00009930,Clark Blvd opp Folkstone Cres (W),43.727588,-79.705991,5350564.01
00009940,Clark Blvd at Elrose Rd,43.727281,-79.702531,5350564.01
00009950,Clark Blvd at Eastbourne Dr,43.726384,-79.70068,5350564.01
00009960,Clark Blvd at Torbram Rd,43.727127,-79.697851,5350560.0
00009970,Clark Blvd e/of Torbram Rd,43.728576,-79.695897,5350576.79
00009980,Summerlea Rd n/of Clark Blvd,43.730752,-79.694403,5350576.79
00009990,Summerlea Rd at Colony Crt,43.731917,-79.695989,5350576.79
00010000,Summerlea Rd n/of RRX,43.733715,-79.69844,5350576.79
00010010,Summerlea Rd n/of Imperial Gate,43.735407,-79.70073,5350576.79
00010020,Walker Dr at 300 Walker Dr,43.737988,-79.6986,5350576.79
00010030,Walker Dr e/of Gateway Blvd,43.738797,-79.697662,5350576.79
00010040,Walker Dr s/of Coventry Rd,43.738341,-79.695343,5350576.79
00010050,Walker Dr at Shaftsbury  Lane,43.736567,-79.692939,5350576.79
00010060,Walker Dr opp Indell Lane,43.735315,-79.691243,5350576.79
00010065,Walker Dr at Clark Blvd,43.734137,-79.689667,5350576.79
00010070,Clark Blvd at Airport Rd,43.735133,-79.686686,5350576.79
00010080,Clark Blvd at Devon Rd,43.736654,-79.68458,5350576.78
00010100,Devon Rd at 74 Devon Rd,43.735087,-79.682146,5350576.78
00010110,Devon Rd at 50 Devon Rd,43.733095,-79.679478,5350576.78
00010120,Devon Rd at Intermodal Dr,43.731758,-79.6778,5350576.78
00010125,Intermodal - Zum Bovaird Station Stop NB,43.731185,-79.678794,5350576.78
00010130,Woodslea - Zum Bovaird Station Stop SB,43.730852,-79.678994,5350576.79
00010135,Woodslea Rd w/of Airport Road,43.730367,-79.679315,5350576.79
00010140,Woodslea Rd at Walker Dr,43.729021,-79.681154,5350576.79
00010150,Walker Dr at 98 Walker Dr,43.726933,-79.679882,5350576.79
00010160,Walker Dr at 90 Walker Dr,43.725784,-79.678476,5350576.79
00010170,Walker Dr at 80 Walker Dr,43.723985,-79.678554,5350576.79
00010180,Walker Dr at 78 Walker Dr,43.722218,-79.678865,5350576.79
00010190,Summerlea Rd n/of Walker Dr,43.720427,-79.680419,5350576.79
00010200,Summerlea Rd at 75 Summerlea Rd,43.721981,-79.682506,5350576.79
00010210,Summerlea Rd at 99 Summerlea Rd,43.72344,-79.684453,5350576.79
00010230,Summerlea Rd n/of Trojan Crt,43.725068,-79.686723,5350576.79
00010240,Summerlea Rd at Atlas Crt,43.727524,-79.690024,5350576.79
00010250,Summerlea Rd at Barton Crt,43.72911,-79.692165,5350576.79
00010260,Clark Blvd e/of Torbram Rd,43.727742,-79.697413,5350576.79
00010265,Clark Blvd btwn Summerlea and Torbram Rd,43.728869,-79.695848,5350576.79
00010270,Clark Blvd opp Eastbourne Dr,43.726529,-79.70005,5350564.02
00010280,Clark Blvd w/of Folkstone Cres (E),43.72743,-79.702428,5350564.02
00010290,Clark Blvd e/of Folkstone Cres,43.727868,-79.705577,5350564.02
00010300,Clark Blvd at Finchgate Blvd,43.726214,-79.707958,5350564.02
00010310,Clark Blvd opp Esplanade Rd,43.724976,-79.708506,5350564.02
00010320,Clark Blvd opp Earnscliffe Gate,43.723437,-79.709189,5350564.02
00010330,Clark Blvd at Fleetwood Cres,43.721298,-79.709982,5350564.02
00010340,Clark Blvd at Bramalea Rd,43.720089,-79.71097,5350564.02
00010350,Clark Blvd at Kings Cross Rd,43.718978,-79.712635,5350563.01
00010360,Clark Blvd at Central Park Dr,43.717056,-79.71519,5350563.01
00010400,Mountainberry Rd e/of Snowcap Rd,43.764747,-79.732818,5350576.22
00010420,Mountainberry Rd at Snow Leopard Crt (N),43.766079,-79.730315,5350576.22
00010440,Mountainberry Rd btwn Snow Leopard & Narrow Valley,43.764389,-79.726777,5350576.22
00010450,Mountainberry Rd opp Mount Rainer Cres (W),43.761644,-79.727372,5350576.22
00010460,Mountainberry Rd at Snowcap Rd,43.761034,-79.730683,5350576.22
00010470,Peter Robertson Blvd w/of Mountainash Rd,43.760313,-79.733061,5350576.22
00010480,Peter Robertson Blvd at Eagleridge Dr,43.758467,-79.735253,5350576.22
00010490,Peter Robertson Blvd w/of Torbram Rd,43.756367,-79.73763,5350576.46
00010500,Peter Robertson Blvd at Barley Field Rd,43.754432,-79.73989,5350576.46
00010510,Peter Robertson Blvd at Sunny Meadow Blvd,43.75213,-79.741947,5350576.46
00010520,Sunny Meadow Blvd opp Oatfield Rd,43.752683,-79.743198,5350576.46
00010530,Sunny Meadow Blvd at Red Clover Rd,43.754151,-79.745216,5350576.46
00010540,Sunny Meadow Blvd at Red River Rd,43.755165,-79.746578,5350576.46
00010580,Black Forest Dr at Sprucelands Ave,43.74951,-79.753486,5350576.17
00010590,Black Forest Dr opp Willow Park Dr,43.747903,-79.754774,5350576.17
00010593,Black Forest Dr opp Bunchberry Way,43.746442,-79.755915,5350576.17
00010595,Fernforest Dr s/of Black Forest Dr (at Bobcat St),43.743795,-79.755516,5350576.16
00010600,Peter Robertson Blvd w/of Fernforest Dr,43.740619,-79.754259,5350576.16
00010610,Peter Robertson Blvd w/of Hickroybush Ave,43.740349,-79.757684,5350576.16
00010620,Peter Robertson Blvd at Dixie Rd,43.739325,-79.75972,5350576.16
00010630,Guru Nanak St e/of Canada Goose Blvd,43.737447,-79.76166,5350576.93
00010640,Guru Nanak St e/of Blue Whale Blvd,43.736316,-79.762747,5350576.93
00010650,Guru Nanak St opp Riverbank Rd,43.734262,-79.763841,5350576.93
00010680,Guru Nanak St w/of Riverbank Rd,43.73408,-79.763703,5350576.93
00010690,Guru Nanak St w/of Rainstorm Rd,43.735495,-79.762946,5350576.93
00010700,Guru Nanak St opp Canada Goose Blvd,43.736953,-79.761907,5350576.93
00010705,Guru Nanak St w/of Dixie Rd,43.738267,-79.760448,5350576.93
00010710,Peter Robertson Blvd at Softneedle Ave,43.740232,-79.75734,5350576.16
00010730,Fernforest Dr at Kimberly Cres (S),43.741059,-79.753897,5350576.17
00010740,Fernforest Dr at Hackberry Gate,43.743937,-79.755472,5350576.17
00010750,Black Forest Dr e/of Bunchberry Way,43.74665,-79.755483,5350576.17
00010760,Black Forest Dr e/of Willow Park Dr,43.748233,-79.754481,5350576.17
00010770,Black Forest Dr e/of Winterberry Gate,43.749409,-79.753364,5350576.17
00010780,Black Forest Dr at Bramalea Rd,43.750192,-79.752491,5350576.17
00010820,Sunny Meadow Blvd s/of Larkspur Rd,43.754982,-79.746542,5350576.2
00010830,Sunny Meadow Blvd at Squirreltail Way,43.754234,-79.745554,5350576.2
00010840,Sunny Meadow Blvd at Oatfield Rd,43.753119,-79.744055,5350576.2
00010845,Sunny Meadow Blvd n/of Peter Robertson Blvd,43.751907,-79.742467,5350576.2
00010850,Peter Robertson Blvd at Giraffe Ave (W),43.752459,-79.741281,5350576.46
00010855,Sunny Meadow Blvd opp Thunderbird Trail,43.750392,-79.741241,5350576.2
00010857,Brampton Civic Hospital 12 SB / 35,43.747835,-79.741838,5350576.2
00010858,Brampton Civic Hospital 12NB,43.747872,-79.741797,5350576.2
00010860,Peter Robertson Blvd w/of Clover Bloom Rd,43.753818,-79.740331,5350576.46
00010870,Peter Robertson Blvd at Torbram Rd,43.756363,-79.737245,5350576.46
00010875,Peter Robertson Blvd at Red Stag Rd,43.757669,-79.735804,5350576.22
00010885,Peter Robertson Blvd at Mountainash Rd,43.760365,-79.732503,5350576.22
00010915,Sunny Meadow Blvd s/of Father Tobin Rd,43.765614,-79.761339,5350576.54
00010918,Sunny Meadow Blvd at Father Tobin Rd,43.76582,-79.761397,5350576.55
00010924,Sunny Meadow Blvd n/of Sparhill St,43.764633,-79.760004,5350576.54
00010925,Sunny Meadow Blvd btwn Vanderbrink Dr & Serenes,43.764412,-79.759483,5350576.55
00010929,Sunny Meadow Blvd n/of Australia Dr,43.763508,-79.758252,5350576.55
00010930,Sunny Meadow Blvd at Australia Dr,43.762952,-79.757761,5350576.54
00010931,Sunny Meadow Blvd at Stanley Mills Public School,43.760775,-79.757365,5350576.54
00010934,Sunny Meadow Blvd s/of Chapparal Dr,43.762009,-79.757003,5350576.55
00010938,Sunny Meadow n/of Black Cherry Ln,43.759291,-79.75706,5350576.55
00010940,Sunny Meadow Blvd opp Black Cherry Lane,43.759145,-79.757227,5350576.54
00010950,Sunny Meadow Blvd n/of Sandalwood Pkwy,43.757478,-79.754857,5350576.54
00010952,Sunny Meadow Blvd n/of Sandalwood Pky,43.757656,-79.754994,5350576.55
00010960,Sandalwood Pkwy w/of Bramalea Rd,43.753657,-79.758099,5350576.85
00010970,Sandalwood Pky E at Rattlesnake Rd,43.752768,-79.759587,5350576.85
00010975,Sandalwood Pky E btwn Rattlesnake and Fernforest,43.751322,-79.761982,5350576.85
00010980,Sandalwood Pky at Fernforest Dr,43.750267,-79.763544,5350576.85
00010990,Sandalwood Pky E btwn Fernforest Dr & Dixie Rd,43.74815,-79.766007,5350576.59
00011000,Sandalwood Pky E opp Springtown Trail,43.746646,-79.767543,5350576.59
00011010,Sandalwood Pky E w/of Dixie Rd,43.744874,-79.769621,5350576.92
00011060,Trinity Common Terminal Route 32/23 WB/ 300 Stop,43.731442,-79.763449,5350576.93
00011100,Sandalwood Pky E w/of Heart Lake Rd,43.736017,-79.781396,5350576.04
00011110,Sandalwood Pky E at Royal Palm Dr (E),43.733799,-79.785386,5350576.04
00011120,Sandalwood Pky E at Royal Palm Dr (W),43.731589,-79.788119,5350576.04
00011130,Sandalwood Pky E at Richvale Dr (WB),43.730283,-79.790017,5350576.04
00011140,Sandalwood Pky E at Kennedy Rd N,43.728444,-79.793196,5350576.04
00011150,Kennedy Rd N n/of Sandalwood Pky E,43.729481,-79.794935,5350576.04
00011160,Conestoga Dr at Mondragon Circle,43.729816,-79.797005,5350576.09
00011170,Heart Lake Terminal Route 23 WB Stop,43.727787,-79.798337,5350576.09
00011180,Conestoga Dr at Loafers Lake Lane,43.726167,-79.798632,5350576.09
00011240,Sandalwood Pky W w/of Hurontario St,43.716748,-79.804407,5350576.34
00011250,Sandalwood Pkwy at 130 Sandalwood Pkwy,43.71424,-79.807185,5350576.34
00011260,Sandalwood Pky n/of Van Kirk Dr,43.710048,-79.810315,5350576.34
00011290,Queen Mary Dr at Gold Park Place,43.703697,-79.813888,5350576.43
00011300,Queen Mary Dr s/of Woodvalley Dr,43.701818,-79.810658,5350576.43
00011305,Queen Mary Dr s/of Whispering Hills Gate,43.700837,-79.808543,5350576.43
00011310,Queen Mary Dr s/of Lormel Gate,43.69967,-79.805848,5350576.43
00011320,Queen Mary Dr s/of Sunnybrook Cres (S),43.69684,-79.804625,5350576.43
00011330,Queen Mary Dr at Briarcroft Rd (E),43.695467,-79.805037,5350576.43
00011350,Edenbrook Hill Dr at Briarcroft Rd (W),43.694878,-79.807812,5350576.43
00011351,Edenbrook Hill Dr n/of Packham Cr,43.695083,-79.810283,5350576.43
00011360,Edenbrook Hill Dr s/of Duffield Rd,43.695563,-79.813363,5350576.43
00011365,Edenbrook Hill Dr btwn Amboise Cres & Bonistel Cr,43.696607,-79.815219,5350576.43
00011405,Worthington Ave s/of Fairhill Ave,43.686018,-79.822117,5350577.08
00011410,Worthington Ave at Gabrielle Dr,43.685197,-79.821002,5350577.08
00011420,Worthington Ave at Clayborne Ave,43.683747,-79.819055,5350577.08
00011430,Worthington Ave at Salvation Rd,43.681312,-79.816067,5350577.08
00011440,Mount Pleasant GO Station  Route 9 Stop,43.674492,-79.822436,5350577.0
00011460,Worthington Ave n/of Salvation Rd,43.681599,-79.816175,5350577.08
00011470,Worthington Ave opp Clayborne Ave,43.683634,-79.818691,5350577.08
00011480,Worthington Ave opp Gabrielle Dr,43.684771,-79.82021,5350577.08
00011485,Worthington Ave at Fairhill Ave,43.686189,-79.822134,5350577.08
00011510,Brisdale Dr s/of Sandy Beach Rd,43.689711,-79.824689,5350576.8
00011520,Brisdale Dr n/of Wetmeadow Dr,43.691822,-79.827545,5350576.8
00011530,Brisdale Dr s/of Sandalwood Pky,43.693228,-79.829543,5350576.8
00011540,Brisdale Dr at Ranchero Dr opp St. Edmund Campion,43.694333,-79.831068,5350576.53
00011550,Brisdale Dr at Ramsey Lane,43.696092,-79.833487,5350576.53
00011560,Botavia Downs Dr e/of Brisdale Dr,43.697495,-79.834583,5350576.53
00011570,Botavia Downs Dr at Trumpet Valley Blvd,43.69916,-79.831858,5350576.53
00011583,Earlsbridge Blvd e/of Chinguacousy Rd - School,43.702014,-79.828585,5350576.5
00011590,Earlsbridge Blvd at Edenbrook Hill Dr,43.703928,-79.827061,5350576.5
00011630,Sandalwood Pky w/of Queen Mary Dr,43.703913,-79.815221,5350576.43
00011640,Sandalwood Pky W at McLaughlin Rd N,43.706321,-79.812096,5350576.43
00011650,Sandalwood Pky s/of Van Kirk Dr,43.709289,-79.810014,5350576.07
00011660,Sandalwood Pkwy opp 130 Sandalwood Pkwy,43.71401,-79.806956,5350576.07
00011670,Sandalwood Pky W at Hurontario St,43.71705,-79.803701,5350576.07
00011730,Heart Lake Terminal Route 204/218 Stop,43.727784,-79.798138,5350576.09
00011750,Sandalwood Pky E at Richvale Dr (EB),43.72969,-79.790252,5350576.06
00011760,Sandalwood Pky E opp Royal Palm Dr (W),43.731029,-79.788573,5350576.06
00011770,Sandalwood Pky E at Glover Gate,43.73334,-79.785423,5350576.06
00011780,Sandalwood Pky E at Heart Lake Rd,43.735214,-79.782145,5350576.06
00011790,Great Lakes Dr at 400 Great Lakes Dr,43.741018,-79.773372,5350576.93
00011810,Great Lakes Dr s/of Masjid Dr (St. Isac E.S.),43.736479,-79.769078,5350576.93
00011815,Great Lakes Dr s/of Serenity Ln,43.734727,-79.767261,5350576.93
00011825,Great Lakes Dr s/of Guru Nanak St,43.732772,-79.764351,5350576.93
00011830,Trinity Common Terminal Route 33/23 EB Stop,43.731211,-79.763296,5350576.93
00011840,Great Lakes Dr at Beachsurf Rd,43.734159,-79.766233,5350576.93
00011850,Great Lakes Dr s/of Masjid Dr,43.736831,-79.769172,5350576.93
00011860,Great Lakes Dr at Harold M. Brathwaite S.S.,43.737772,-79.770395,5350576.93
00011870,Great Lakes Dr at Sandalwood Pky,43.741187,-79.773169,5350576.93
00011875,Sandalwood Pkwy at Save Max Sports Centre,43.743204,-79.771272,5350576.93
00011880,Sandalwood Pky E at Dixie Rd,43.744755,-79.769211,5350576.93
00011890,Sandalwood Pky E e/of Springtown Trail,43.74674,-79.767057,5350576.16
00011910,Sandalwood Pky E at Pinecone Way,43.752311,-79.759944,5350576.17
00011920,Sandalwood Pky E at Bramalea Rd,43.753766,-79.757529,5350576.17
00011940,Sandalwood Pky E e/of Sunny Meadow Blvd,43.757983,-79.753931,5350576.45
00011950,Sandalwood Pky E opp Black Cherry Lane,43.75911,-79.753274,5350576.45
00011960,Sandalwood Pky E at Cobblestone Crt,43.76107,-79.752331,5350576.45
00011970,Sandalwood Pky E at Lakespring Gate,43.763809,-79.750267,5350576.45
00011975,Sandalwood Pky at Torbram Rd,43.764935,-79.748693,5350576.45
00011980,Torbram Rd n/of Sandalwood Pky E,43.765669,-79.748941,5350576.89
00011982,Torbram Rd at Brucewood Rd,43.767449,-79.751413,5350576.89
00011986,Torbram Rd at 10755 Torbram Rd,43.769684,-79.754487,5350576.89
00012040,English St w/of Main St N,43.694392,-79.771965,5350573.03
00012050,English St at Murray St,43.693415,-79.773031,5350573.03
00012060,English St e/of Talbot St,43.690717,-79.775961,5350573.07
00012070,English St at Vodden St W,43.689402,-79.776209,5350573.07
00012080,Vodden St W at Talbot St,43.689412,-79.778632,5350573.07
00012090,Vodden St W at Roseland Gate,43.689791,-79.78227,5350573.07
00012100,Vodden St W at Williams Pky W,43.690378,-79.784479,5350573.07
00012110,Royal Orchard Dr n/of Williams Pky W,43.690972,-79.7855,5350573.06
00012120,Royal Orchard Dr at Trailridge Dr,43.69221,-79.786229,5350573.06
00012130,Royal Orchard Dr opp Dunhill Rd,43.693799,-79.78685,5350573.06
00012140,Royal Orchard Dr at Suncrest Dr,43.694572,-79.787753,5350573.06
00012150,Royal Orchard Dr at Richwood Cres (S),43.696492,-79.790311,5350573.06
00012160,Royal Orchard Dr at Richwood Cres (N),43.696953,-79.792117,5350573.06
00012170,Royal Orchard Dr at Bovaird Dr,43.697958,-79.794595,5350573.06
00012180,Van Kirk Dr at Canam Cres (S),43.698944,-79.796085,5350576.07
00012190,Van Kirk Dr at Canam Cres (N),43.700077,-79.797796,5350576.07
00012200,Van Kirk Dr n/of Railway Tracks (northbound),43.703733,-79.799859,5350576.07
00012210,Van Kirk Dr at 95 Van Kirk Dr,43.705715,-79.801568,5350576.07
00012220,Van Kirk Dr at 111 Van Kirk Dr,43.707616,-79.804139,5350576.07
00012230,Van Kirk Dr opp Regan Rd (N),43.709138,-79.806348,5350576.07
00012240,Van Kirk Dr s/of Sandalwood Pky W,43.709572,-79.808386,5350576.07
00012250,Van Kirk Dr n/of Sandalwood Pky W,43.709698,-79.811081,5350576.34
00012260,Van Kirk Dr at Van Scott Dr,43.710786,-79.814119,5350576.34
00012270,Van Kirk Dr at Viceroy Cres (S),43.713484,-79.817776,5350576.34
00012280,Van Kirk Dr at Van Scott Dr (N),43.715376,-79.818965,5350576.34
00012290,Van Kirk Dr s/of Wanless Dr,43.718267,-79.821419,5350576.34
00012295,Wanless Dr at 225 Wanless Dr,43.721601,-79.818258,5350576.34
00012300,Wanless Dr opp Tournament Dr,43.723651,-79.816173,5350576.34
00012330,Conestoga Dr n/of Sutter Ave,43.724827,-79.794132,5350576.05
00012360,Conestoga Dr n/of Ebby Ave,43.718128,-79.78835,5350576.05
00012370,Conestoga Dr s/of Ebby Ave (at Heart Lake S.S.),43.717049,-79.788034,5350576.05
00012400,Wanless Dr at Hurontario St,43.725304,-79.814391,5350576.34
00012410,Hurontario St at 10886 Hurontario St,43.723918,-79.811726,5350576.34
00012420,Hurontario St opp Petworth Dr,43.72138,-79.808256,5350576.34
00012425,Sandalwood - Zum Main Station Stop NB,43.718308,-79.803496,5350576.33
00012430,Sandalwood Loop - Route 502 Stop,43.720821,-79.808831,5350576.34
00012470,Sandalwood Pky E e/of Conestoga Dr,43.726169,-79.795726,5350576.05
00012485,Heart Lake Terminal Route 201 Stop,43.72809,-79.798095,5350576.09
00012495,Heart Lake Terminal Route 7 NB - Departure,43.72809,-79.79812,5350576.09
00012560,Hurontario St s/of Petworth Rd,43.721688,-79.80812,5350576.33
00012565,Hurontario St opp 10866 Hurontario St,43.723859,-79.811146,5350576.33
00012568,Hurontario St s/of Conservation Dr,43.725603,-79.813447,5350576.33
00012570,Wanless Dr w/of Hurontario St,43.725366,-79.814736,5350576.76
00012580,Wanless Dr e/of Tournament Dr,43.724198,-79.815976,5350576.76
00012590,Van Kirk Dr s/of Wanless Dr,43.717975,-79.821227,5350576.34
00012600,Van Kirk Dr n/of Van Scott Dr,43.715718,-79.819335,5350576.34
00012610,Van Kirk Dr opp Viceroy Cres (S),43.713579,-79.818039,5350576.34
00012615,Van Kirk Dr s/of Mossgrove Cres,43.711264,-79.814976,5350576.34
00012630,Van Kirk Dr at Cedarvalley Blvd,43.709841,-79.81271,5350576.34
00012640,Van Kirk Dr s/of Sandalwood Pkwy,43.709428,-79.808162,5350576.07
00012650,Van Kirk Dr s/of Regan Rd (N) (opp 111 Van Kirk Dr,43.707267,-79.803954,5350576.07
00012660,Van Kirk Dr s/of Regan Rd (N) (opp 105 Van Kirk Dr,43.705858,-79.802043,5350576.07
00012675,Van Kirk Dr n/of Railway Tracks (southbound),43.704045,-79.800176,5350576.07
00012678,Van Kirk Dr at Regan Rd,43.700368,-79.798468,5350576.07
00012690,Van Kirk Dr n/of Bovaird Dr,43.698517,-79.795841,5350576.07
00012710,Royal Orchard Dr at Springview Dr (N),43.696966,-79.792769,5350573.06
00012715,Royal Orchard Dr opp Richwood Cres (S),43.696484,-79.790618,5350573.06
00012720,Royal Orchard Dr at Red Maple Dr,43.694533,-79.787932,5350573.06
00012730,Royal Orchard Dr at Springview Dr (S),43.691893,-79.786336,5350573.06
00012740,Royal Orchard Dr at Williams Pky W,43.690638,-79.785196,5350573.06
00012750,Vodden St W s/of Williams Pky W,43.690189,-79.784406,5350573.07
00012760,Vodden St W at Brookview Rd,43.689577,-79.781594,5350573.07
00012770,Vodden St W opp Talbot St,43.689289,-79.778734,5350573.07
00012780,Vodden St W at Pleasantview Ave,43.689176,-79.77624,5350573.07
00012790,English St opp Talbot St,43.690471,-79.77599,5350573.07
00012795,English St n/of Alison Crt ( 41 English St ),43.692229,-79.774154,5350573.03
00012800,English St opp Murray St,43.693593,-79.772665,5350573.03
00012810,English St at Main St,43.694445,-79.771732,5350573.03
00012840,Main St N at Market St,43.689215,-79.764533,5350574.0
00012920,Vodden St W w/of Main St N,43.692481,-79.770266,5350573.03
00012930,Vodden St W at Rosebud Ave,43.690418,-79.772554,5350573.03
00012940,Vodden St W at English St,43.68941,-79.775585,5350573.07
00012970,Williams Pky W w/of Royal Orchard Dr,43.690301,-79.785364,5350573.06
00012980,Williams Pky W at McLaughlin Rd N,43.688722,-79.78719,5350573.06
00012990,Williams Pky W w/of McLaughlin Rd N,43.686896,-79.788784,5350573.1
00013000,Williams Pky W at Fletchers Creek Blvd,43.684688,-79.790984,5350573.1
00013010,Fletchers Creek Blvd n/of Porchlight Rd,43.686241,-79.794574,5350573.1
00013020,Fletchers Creek Blvd opp Binder Twine Trail,43.687207,-79.797559,5350573.1
00013030,Fletchers Creek Blvd at Dwellers Rd,43.689069,-79.800822,5350573.1
00013033,Fletchers Creek s/of Bovaird Dr,43.691024,-79.802553,5350573.1
00013040,Edenbrook Hill Dr at Queen Anne Dr,43.692733,-79.804864,5350576.43
00013070,Edenbrook Hill Dr opp Peachleaf Cres,43.697831,-79.817339,5350576.43
00013080,Edenbrook Hill Dr at Sandalwood Pky W,43.699143,-79.819608,5350576.43
00013090,Edenbrook Hill Dr n/of River Rock Cres (S),43.700213,-79.821405,5350576.5
00013100,Edenbrook Hill Dr at Belinda Dr,43.702573,-79.82369,5350576.5
00013110,Edenbrook Hill Dr s/of Earlsbridge Blvd,43.703988,-79.826325,5350576.5
00013120,Edenbrook Hill Dr opp Ridgemore Cres (S),43.706224,-79.830141,5350576.49
00013130,Edenbrook Hill Dr at Wanless Dr,43.707799,-79.832271,5350576.49
00013160,Wanless Dr e/of McLaughlin Rd N,43.716123,-79.823919,5350576.34
00013170,Wanless Dr w/of Van Kirk Dr,43.718109,-79.821725,5350576.34
00013230,Conservation Dr opp Axminster Rd - 201 School Only,43.734655,-79.804767,5350576.09
00013240,Kennedy Dr N s/of Conservation Dr,43.735241,-79.803152,5350576.09
00013250,Kennedy Rd N opp McFadden Dr,43.734292,-79.801829,5350576.09
00013260,Kennedy Rd N s/of Somerset Dr,43.731715,-79.798335,5350576.09
00013383,Kennedy Rd at Richvale Dr - School Only,43.732145,-79.798374,5350576.04
00013385,Kennedy Rd N at McFadden Dr - 201 School Only,43.7342,-79.801213,5350576.04
00013400,Conservation Dr at Axminister Rd - 201 School Only,43.734663,-79.804951,5350576.09
00013410,Conservation Dr at Carnforth Dr - 201 School Only,43.73314,-79.806585,5350576.09
00013470,Wanless Dr e/of Van Kirk Dr,43.718753,-79.821471,5350576.77
00013480,McLaughlin Rd s/of Wanless Dr,43.715103,-79.82374,5350576.49
00013610,Edenbrook Hill Dr opp Queen Mary Dr,43.693843,-79.806612,5350576.44
00013620,Edenbrook Hill Dr n/of Bovaird Dr,43.691652,-79.803608,5350576.44
00013630,Fletchers Creek Blvd s/of Bovaird Dr W,43.690715,-79.802427,5350573.11
00013650,Fletchers Creek Blvd at Binder Twine Trail,43.687067,-79.797543,5350573.11
00013660,Fletchers Creek Blvd opp Porchlight Rd,43.685938,-79.793997,5350573.11
00013675,Carnforth Dr at Ramsgate Crt - 201 School Only,43.734256,-79.808981,5350576.09
00013676,Carforth Dr at Lennox Crt - 201 School Only,43.734811,-79.809935,5350576.09
00013680,Williams Pky W e/of McLaughlin Rd N,43.688803,-79.786687,5350573.07
00013730,Vodden St W at Mill St N,43.690033,-79.772855,5350573.03
00013740,Vodden St W at Main St N,43.692655,-79.769668,5350573.03
00013860,McLaughlin Rd at Charolais Blvd,43.660158,-79.748793,5350572.04
00013870,McLaughlin Rd S at 8351 McLaughlin Rd S,43.663159,-79.752884,5350572.04
00013880,McLaughlin Rd S n/of Elgin St,43.664354,-79.754436,5350572.01
00013895,McLaughlin Rd S n/of Curtis Dr,43.665555,-79.756153,5350572.01
00013900,McLaughlin Rd at Harold St,43.668404,-79.760023,5350572.01
00013910,McLaughlin Rd S at John Knox Christian School,43.67156,-79.764321,5350572.01
00013920,McLaughlin Rd S at Corona Gate,43.672638,-79.765763,5350572.01
00013930,Flower City Community Campus Route 1/1A/3A/57 Stop,43.671368,-79.769836,5350572.09
00013935,McLaughlin Rd S n/of Bufford Dr,43.674693,-79.768574,5350572.01
00013940,McLaughlin Rd S at Queen St W,43.675838,-79.770087,5350572.01
00013950,McLaughlin Rd n/of Dusty Lane,43.677695,-79.772615,5350573.07
00013960,McLaughlin Rd N at Denison Ave,43.678636,-79.773886,5350573.07
00013970,McLaughlin Rd N opp Campbell Dr,43.680767,-79.77682,5350573.07
00013980,McLaughlin Rd opp Flowertown Ave,43.682301,-79.778884,5350573.07
00013990,McLaughlin Rd N at 9381 McLaughlin Rd N,43.684458,-79.781789,5350573.07
00013995,McLaughlin Rd N opp 9500 McLaughlin Rd N,43.68542,-79.783091,5350573.07
00014000,McLaughlin Rd n/of Brookview Rd,43.68637,-79.784369,5350573.07
00014010,McLaughlin Rd s/of Williams Pky,43.688249,-79.786895,5350573.07
00014030,McLaughlin Rd N btwn Williams Pky and Red Maple Dr,43.690196,-79.789522,5350573.06
00014040,McLaughlin Rd s/of Red Maple Dr,43.691352,-79.791061,5350573.06
00014050,McLaughlin Rd N opp Homestead Townhouses,43.694859,-79.795829,5350573.06
00014060,McLaughlin Rd s/of Bovaird Dr,43.695807,-79.797097,5350573.06
00014070,McLaughlin Rd N opp Marycroft Crt,43.697846,-79.799779,5350576.07
00014080,McLaughlin Rd N at Lowry Dr,43.701125,-79.80428,5350576.07
00014085,McLaughlin Rd btwn Lowry Dr & Sandalwood Pkwy,43.703801,-79.807901,5350576.07
00014090,McLaughlin Rd s/of Sandalwood Pky,43.706401,-79.811382,5350576.07
00014100,McLaughlin Rd N at Potters Wheel Gate,43.709401,-79.815585,5350576.34
00014110,McLaughlin Rd N n/of Van Scott Dr,43.71391,-79.82176,5350576.34
00014135,Tournament Dr at Bissell,43.725092,-79.81797,5350576.76
00014140,Tournament Dr at Cresthaven Rd,43.725844,-79.819308,5350576.76
00014150,Cresthaven Rd at Zachary Dr - School Only,43.725935,-79.822829,5350576.76
00014151,Brinkley Dr at Buffridge Trail - School Only,43.729536,-79.821468,5350576.76
00014158,Brinkley Dr at Mapleshade Dr,43.729033,-79.82237,5350576.76
00014160,Brinkley Dr e/of Creekwood Dr,43.727828,-79.823747,5350576.76
00014170,Cresthaven Rd opp Baccarat Cres (S),43.728231,-79.826134,5350576.76
00014190,Robertson Davies Dr at Sundridge St,43.731166,-79.829537,5350576.31
00014200,Robertson Davies Dr opp Twin Willow Cres,43.732412,-79.832178,5350576.31
00014210,Robertson Davies Dr at Collingwood Ave,43.733483,-79.833883,5350576.31
00014220,Collingwood Ave at 21 Collingwood Ave,43.734565,-79.833086,5350576.31
00014230,Collingwood Ave at Hurontario St,43.737272,-79.829999,5350576.31
00014235,Hurontario St at Mayfield Rd,43.733942,-79.825552,5350576.31
00014240,Hurontario St s/of Mayfield Rd,43.732503,-79.823542,5350576.76
00014270,Hurontario St btwn Mayfield Rd & Brinkley Dr,43.731163,-79.821707,5350576.76
00014280,Hurontario St n/of Brinkley Dr,43.730532,-79.820781,5350576.76
00014370,McLaughlin Rd N at Earlsbridge Blvd,43.71377,-79.822088,5350576.49
00014380,McLaughlin Rd N opp Potters Wheel Gate,43.709673,-79.816455,5350576.5
00014390,McLaughlin Rd n/of Sandalwood Pky,43.70676,-79.812358,5350576.5
00014396,McLaughlin Rd btwn Sandalwood Pkwy & Lormel Gate,43.70389,-79.808392,5350576.43
00014400,McLaughlin Rd N at Lormel Gate,43.701253,-79.804915,5350576.43
00014410,McLaughlin Rd N at Marycroft Crt,43.698003,-79.800472,5350576.43
00014420,McLaughlin Rd n/of Bovaird Dr,43.696125,-79.797939,5350576.43
00014430,McLaughlin Rd N at Homestead Townhouses,43.694974,-79.796411,5350573.1
00014440,McLaughlin Rd n/of Red Maple Dr,43.691823,-79.792143,5350573.1
00014450,McLaughlin Rd n/of Williams Pky,43.688498,-79.787632,5350573.1
00014470,McLaughlin Rd at Brookview Rd,43.686799,-79.785308,5350573.09
00014480,McLaughlin Rd N at 9500 McLaughlin Rd N,43.685458,-79.783558,5350573.09
00014490,McLaughlin Rd N at 9446 McLaughlin Rd N,43.684405,-79.782056,5350573.09
00014500,McLaughlin Rd at Flowertown Ave,43.682404,-79.779367,5350573.09
00014510,McLaughlin Rd N n/of Campbell Dr,43.681344,-79.7779,5350573.05
00014520,McLaughlin Rd N opp Amsterdam Cres,43.680096,-79.776202,5350573.05
00014530,McLaughlin Rd opp Denison Ave,43.678537,-79.774084,5350573.05
00014540,McLaughlin Rd N n/of Horwood Dr,43.677746,-79.773021,5350573.05
00014550,McLaughlin Rd N n/of Queen St W,43.676557,-79.77146,5350573.05
00014560,McLaughlin Rd S at FCCC Entrance,43.674312,-79.768543,5350572.09
00014580,McLaughlin Rd S opp Corona Gate,43.672486,-79.765969,5350572.09
00014590,McLaughlin Rd S at 109 McLaughlin Rd,43.671235,-79.764262,5350572.09
00014600,McLaughlin Rd at Brown's Ln,43.668552,-79.760608,5350572.07
00014610,McLaughlin Rd S opp Curtis Dr,43.665345,-79.756191,5350572.07
00014620,McLaughlin Rd S at Elgin St,43.663708,-79.753967,5350572.07
00014630,McLaughlin Rd s/of Charolais Blvd,43.659975,-79.748909,5350572.08
00014635,McLaughlin Rd S btwn Charolais Blvd & Steeles Ave,43.657917,-79.746152,5350572.08
00014780,Airport Rd at Driver Rd,43.720593,-79.664564,5350576.78
00014790,Steeles - Zum Bovaird Station Stop NB,43.723431,-79.668367,5350576.78
00014800,Airport Rd n/of 407 Ramp,43.729628,-79.676785,5350576.78
00014820,Airport Rd btwn Intermodal Dr & Clark Blvd,43.733769,-79.682381,5350576.78
00014830,Airport Rd s/of Clark Blvd,43.735731,-79.684928,5350576.78
00014840,Airport Rd btwn Clark Blvd & Nevets Rd,43.738779,-79.689107,5350576.78
00014850,Airport Rd at Nevets Rd,43.740657,-79.691564,5350576.78
00014865,Airport Rd at Woodhill Centre (9105 Airport Rd),43.745835,-79.698518,5350576.78
00014870,Airport Rd at Maritime Ontario Blvd,43.747309,-79.700497,5350576.78
00014875,Airport Rd at 9263 Airport Rd,43.749214,-79.703059,5350576.78
00014880,Airport Rd at Williams Pky E,43.752692,-79.707699,5350576.78
00014890,Williams - Zum Bovaird Station Stop NB,43.754132,-79.709664,5350576.78
00014900,Airport Rd btwn Williams Pky E & Cottrelle Blvd,43.756262,-79.712597,5350576.78
00014905,Cottrelle - Zum Bovaird Station Stop NB,43.759208,-79.716555,5350576.78
00014906,Airport Rd at Triple Crown Dr,43.760898,-79.718806,5350576.78
00014910,Airport Rd at Castlemore Rd - Rte 30/35 ONLY,43.762758,-79.721256,5350576.78
00014915,Airport Rd at Mistymorning Dr,43.765355,-79.724787,5350576.69
00014920,Airport Rd n/of Humberwest Pkwy,43.769352,-79.730224,5350576.69
00014930,Airport Rd at Braydon Blvd,43.772806,-79.734922,5350576.69
00014940,Airport Rd at Brock Dr,43.778648,-79.742841,5350576.68
00014950,Airport Rd at Treeline Blvd,43.780389,-79.745206,5350576.68
00014960,Airport Rd at Countryside Dr,43.782969,-79.748709,5350576.68
00014970,Airport Rd s/of Lacoste Blvd,43.786528,-79.753535,5350576.75
00014980,Airport Rd s/of Mayfield Rd,43.790917,-79.759413,5350576.75
00015040,Goreway Dr s/of Countryside Dr,43.792197,-79.737589,5350576.47
00015105,Castlemore Rd w/of Goreway Dr,43.772325,-79.712058,5350576.47
00015110,Castlemore Rd e/of Crystall Hill Dr,43.769918,-79.714829,5350576.69
00015115,Castlemore Rd at Airport Rd,43.763896,-79.722073,5350576.69
00015120,Airport Rd s/of Bovaird Dr E,43.76273,-79.721967,5350576.79
00015125,Airport Rd s/of Triple Crown Dr,43.760585,-79.719076,5350576.79
00015130,North Park - Zum Bovaird Station Stop SB,43.758815,-79.716722,5350576.79
00015140,Airport Rd btwn North Park Dr & Williams Pkwy,43.755661,-79.712373,5350576.79
00015160,Williams - Zum Bovaird Station Stop SB,43.752712,-79.708409,5350576.79
00015162,Airport Rd at 9264 Airport Rd,43.749385,-79.70403,5350576.79
00015165,Airport Rd at 9250 Airport Rd,43.747683,-79.701749,5350576.79
00015170,Airport Rd n/of Queen St,43.743711,-79.696474,5350576.79
00015190,Airport Rd s/of Coventry Rd,43.740258,-79.691689,5350576.79
00015210,Airport Rd n/of Clark Blvd,43.736208,-79.686244,5350576.79
00015220,Airport Rd btwn Clark Blvd & Woodslea Rd,43.734097,-79.683366,5350576.79
00015240,Steeles - Zum Bovaird Station Stop SB,43.723031,-79.668578,5350576.79
00015250,Airport Rd n/of Production Rd,43.720884,-79.665539,5350576.79
00015370,McMurchy Ave S at Keewatin Gate,43.661726,-79.739173,5350572.05
00015380,McMurchy Ave S n/of Pagebrook Crt,43.663685,-79.741785,5350572.05
00015390,Charolais Blvd w/of McMurchy Ave S,43.664914,-79.744388,5350572.04
00015400,Charolais Blvd w/of Keystone Dr,43.663628,-79.745793,5350572.04
00015410,Charolais Blvd at Bach Blvd,43.662859,-79.746636,5350572.04
00015420,Charolais Blvd e/of McLaughlin Rd,43.660894,-79.748612,5350572.04
00015430,Charolais Blvd w/of McLaughlin Rd,43.659459,-79.750215,5350572.07
00015440,Moffatt Ave at Plaxton Gate,43.657768,-79.750066,5350572.08
00015450,Moffatt Ave opp Banting Cres,43.656419,-79.748593,5350572.08
00015460,Moffatt Ave at Talon Gate,43.654941,-79.748792,5350572.08
00015470,Duggan Dr n/of Moffatt Ave,43.652799,-79.751515,5350572.08
00015480,Duggan Dr s/of Karen Crt,43.653719,-79.754136,5350572.08
00015500,Charolais Blvd w/of Duggan Dr,43.653403,-79.757092,5350572.07
00015510,Charolais Blvd at Torrance Woods,43.652078,-79.75843,5350572.07
00015513,Chinguacousy Rd at Charolais Blvd,43.650154,-79.759507,5350576.9
00015515,Chinguacousy Rd btwn Charolais Blvd & Steeles Ave,43.648731,-79.757565,5350576.9
00015517,Chinguacousy Rd at Charolais Blvd,43.651162,-79.760129,5350572.07
00015520,Chinguacousy Rd btwn Charolais Blvd & Drinkwater,43.653104,-79.762895,5350572.07
00015540,Drinkwater Rd at St. Augustine S.S.,43.658359,-79.766158,5350572.09
00015550,Drinkwater Rd e/of Lockwood Rd,43.659563,-79.76526,5350572.09
00015620,Queen St w/of Lockwood Rd,43.668581,-79.77897,5350572.1
00015630,Queen St W at Sobey's Entrance (WB),43.668223,-79.779834,5350573.05
00015650,Chinguacousy Rd at Burt Dr,43.670159,-79.786244,5350573.05
00015660,Chinguacousy Rd at Flowertown Ave,43.673598,-79.790878,5350573.05
00015670,Chinguacousy Rd n/of Major William Sharpe Dr,43.676928,-79.79537,5350573.09
00015680,Chinguacousy Rd n/of Williams Pky W,43.682363,-79.80271,5350573.11
00015690,Chinguacousy Rd n/of Olde Town Rd,43.684446,-79.805705,5350573.11
00015695,Chinguacousy Rd at Bovaird Dr,43.685889,-79.807686,5350573.11
00015700,Chinguacousy Rd n/of Bovaird Dr,43.687024,-79.809262,5350576.44
00015710,Chinguacousy Rd opp Grovewood Dr,43.688608,-79.811416,5350576.44
00015720,Chinguacousy Rd opp Fandor Way,43.691395,-79.815139,5350576.44
00015730,Chinguacousy Rd at Duffield Rd,43.692897,-79.817152,5350576.44
00015735,Chinguacousy Rd btwn Duffield Rd and Sandalwood Pk,43.694953,-79.81994,5350576.44
00015740,Chinguacousy Rd s/of Sandalwood Pky,43.696611,-79.822166,5350576.44
00015750,Chinguacousy Rd at Grape Trail,43.699468,-79.826005,5350576.5
00015780,Brisdale Dr s/of Botavia Downs,43.696529,-79.834329,5350576.52
00015790,Brisdale Dr s/of El Camino Way,43.694752,-79.831863,5350576.52
00015800,Brisdale Dr n/of Sandalwood Pky,43.693563,-79.830249,5350576.52
00015810,Brisdale Dr s/of McCrimmon Dr,43.691252,-79.827048,5350576.81
00015820,Brisdale Dr opp Sandy Beach Rd,43.689594,-79.824806,5350576.81
00015840,Brisdale Dr n/of Continental Rd,43.687989,-79.820534,5350577.08
00015845,Brisdale Dr at 120 Brisdale Dr,43.687276,-79.818217,5350577.08
00015850,Brisdale Dr at Grovewood Dr,43.684845,-79.814834,5350577.08
00015860,Brisdale Dr at Bovaird Dr W,43.683579,-79.812599,5350577.08
00015870,Worthington - Zum Bovaird Station Stop WB,43.681027,-79.814538,5350577.08
00015875,Bovaird Dr e/of Lagerfeld Dr,43.673601,-79.821685,5350577.0
00015880,Mount Pleasant GO Station Route 4/4A/104 Stop,43.674525,-79.821909,5350577.0
00015895,Bovaird Dr e/of Ashby Field Rd,43.673245,-79.821598,5350577.0
00015900,Lake Louise - Zum Bovaird Station Stop EB,43.680984,-79.813953,5350576.29
00015910,Brisdale Dr n/of Bovaird Dr W,43.683806,-79.812666,5350577.07
00015920,Brisdale Dr s/of Grovewood Dr,43.68483,-79.814572,5350577.07
00015930,Brisdale Dr s/of Linderwood Dr,43.68636,-79.816658,5350577.07
00015940,Brisdale Dr s/of Fairhill Dr,43.688097,-79.820575,5350577.07
00016030,Chinguacousy Rd s/of Botavia Downs Dr,43.701114,-79.828844,5350576.53
00016040,Chinguacousy Rd opp Grape Trail,43.699615,-79.826781,5350576.53
00016050,Chinguacousy Rd n/of Sandalwood Pky,43.696973,-79.823251,5350576.53
00016070,Chinguacousy Rd at Fairhill Ave,43.693156,-79.81808,5350576.8
00016080,Chinguacousy Rd at Fandor Way,43.691065,-79.815261,5350577.07
00016090,Chinguacousy Rd n/of Grovewood Dr,43.688653,-79.812004,5350577.07
00016100,Chinguacousy Rd at Bovaird Dr,43.686408,-79.808933,5350577.07
00016110,Chinguacousy Rd s/of Marotta Ave,43.683642,-79.805169,5350576.29
00016120,Chinguacousy Rd n/of Williams Pkwy,43.682024,-79.802937,5350576.29
00016130,Chinguacousy Rd n/of Valleyway Dr,43.676571,-79.795542,5350577.02
00016140,Chinguacousy Rd opp Flowertown Ave,43.673722,-79.791647,5350577.02
00016150,Chinguacousy Rd n/of Daviselm Dr,43.670305,-79.787099,5350577.02
00016170,Chinguacousy - Zum Queen West Station Stop EB,43.66685,-79.780859,5350572.1
00016250,Drinkwater Rd at Ready Crt (St. Augustine S.S.),43.65827,-79.766349,5350572.1
00016270,Chinguacousy Rd n/of Charolais Blvd,43.652645,-79.762855,5350576.9
00016280,Charolais Blvd at Moffatt Ave (W),43.651593,-79.758618,5350572.08
00016290,Charolais Blvd at Duggan Dr,43.653481,-79.756801,5350572.08
00016310,Duggan Dr s/of Matterdale Ave,43.653601,-79.754245,5350572.08
00016320,Moffatt Ave e/of Duggan Dr,43.652851,-79.750857,5350572.08
00016330,Moffatt Ave at Tait Blvd,43.654528,-79.748989,5350572.08
00016340,Moffatt Ave at Banting Cres,43.656088,-79.74831,5350572.08
00016350,Moffatt Ave at Charolais Blvd,43.658379,-79.750834,5350572.08
00016360,Charolais Blvd at McLaughlin Rd,43.659744,-79.749526,5350572.08
00016370,Charolais Blvd at Peelton Heights,43.662346,-79.746915,5350572.04
00016380,Charolais Blvd e/of Keystone Dr,43.664087,-79.745027,5350572.04
00016430,Mount Pleasant GO Station Route 55 / 60 Stop,43.674458,-79.822664,5350577.0
00016450,Bovaird Dr W e/of Pertosa Dr,43.683293,-79.811408,5350576.29
00016460,Chinguacousy - Zum Bovaird Station Stop EB,43.686607,-79.807843,5350573.11
00016468,Bovaird Dr at 831 Bovaird Dr W,43.688171,-79.806176,5350573.11
00016470,Bovaird Dr W e/of Fletchers Creek Blvd,43.691751,-79.802232,5350573.1
00016480,McLaughlin - Zum Bovaird Station Stop EB,43.696252,-79.796914,5350573.06
00016490,Bovaird Dr W e/of Royal Orchard Dr,43.698533,-79.794302,5350573.06
00016500,Bovaird Dr W at Gillingham Dr,43.702838,-79.78975,5350573.03
00016510,Main - Zum Bovaird Station Stop EB,43.706446,-79.785766,5350575.05
00016520,Bovaird Dr w/of Yellow Brick Rd,43.708255,-79.783865,5350575.05
00016530,Bovaird Dr E at Hinchley Wood Grove,43.712369,-79.780002,5350575.05
00016540,Kennedy - Zum Bovaird Station Stop EB,43.716331,-79.775795,5350575.08
00016550,Bovaird Dr E w/of Langston Dr,43.718526,-79.773358,5350575.08
00016560,Southlake - Zum Bovaird Station Stop EB,43.721253,-79.769879,5350575.08
00016565,Bovaird Dr E e/of Nasmith St,43.730616,-79.759068,5350562.14
00016570,Great Lakes Dr at Nautical Dr,43.73114,-79.761122,5350576.93
00016580,Great Lakes Dr btwn Nautical Dr & Guru Nanak St,43.732365,-79.763209,5350576.93
00016600,Bovaird Dr E btwn Nasmith St & Dixie Rd,43.73172,-79.757841,5350562.14
00016630,Bovaird Dr E e/of MacKay St,43.738338,-79.750512,5350562.03
00016635,Bovaird Dr E btwn Fernforest Dr & Bramalea Rd,43.74007,-79.748602,5350562.03
00016645,Bramalea Rd s/of Bovaird Dr E,43.743671,-79.743495,5350562.03
00016650,Bovaird Dr w/of Professor's Lake Pkwy,43.748595,-79.739592,5350562.06
00016665,Bovaird Dr btwn Professor's Lake Pkwy & Torbram Rd,43.751592,-79.736841,5350562.06
00016670,Torbram - Zum Bovaird Station Stop EB,43.754742,-79.733222,5350576.79
00016680,Bovaird Dr w/of Sunnyvale Gate,43.757443,-79.730165,5350576.79
00016690,Bovaird Dr E btwn Sunnyvale Gate & Airport Rd,43.759999,-79.726178,5350576.79
00016700,Airport Road - Zum Bovaird Station Stop EB,43.762718,-79.722761,5350576.79
00016710,Castlemore Rd e/of Airport Rd,43.764171,-79.721012,5350576.78
00016715,Castlemore Rd w/of Horizon St,43.767621,-79.71679,5350576.78
00016720,Castlemore Rd e/of Bayridge Dr,43.769797,-79.714385,5350576.78
00016740,Goreway Dr at Cottrelle Blvd,43.770045,-79.707385,5350576.78
00016750,Goreway Dr at 9658 Goreway Dr,43.765667,-79.701461,5350576.78
00016755,Goreway Dr at 9370 Goreway Dr,43.760328,-79.694314,5350576.78
00016760,Goreway Dr opp Yorkland Blvd,43.758774,-79.692179,5350576.78
00016770,Goreway Dr at 9186 Goreway Dr,43.756914,-79.689683,5350576.78
00016780,Goreway Dr s/of Queen St E,43.752467,-79.683946,5350576.78
00016785,Goreway Dr at Auction Lane,43.75141,-79.682535,5350576.78
00016790,Goreway Dr n/of Deerhurst Dr,43.74938,-79.679759,5350576.78
00016800,Goreway Dr opp Armthorpe Rd,43.74505,-79.674095,5350576.78
00016810,Goreway Dr opp 8495 Goreway Dr,43.743322,-79.671759,5350576.78
00016820,Goreway Dr at Intermodal Dr,43.739625,-79.66696,5350576.78
00016830,Goreway Dr btwn Hwy 407 Ramp & Steeles Ave E,43.733562,-79.658943,5350576.78
00016970,Goreway Dr n/of Intermodal Dr,43.739841,-79.666633,5350576.78
00016980,Goreway Dr at 8495 Goreway Dr,43.742998,-79.670708,5350576.78
00016990,Goreway Dr at Armthorpe Rd,43.744738,-79.673008,5350576.78
00017000,Goreway Dr at btwn Armthorpe Rd & Deerhurst Dr,43.7477,-79.67691,5350576.78
00017010,Goreway Dr at Deerhurst Dr,43.749167,-79.678851,5350576.78
00017020,Goreway Dr opp Auction Lane,43.751109,-79.681515,5350576.78
00017025,Goreway Dr s/of Queen St,43.752637,-79.683498,5350576.78
00017030,Humberwest Pky n/of Queen St E,43.753869,-79.685213,5350576.57
00017035,Humberwest Pky at Goreway Dr,43.754933,-79.687458,5350576.78
00017040,Goreway Dr s/of Halliford Pl,43.756555,-79.688893,5350576.57
00017050,Goreway Dr at Yorkland Blvd,43.758734,-79.6918,5350576.57
00017060,Goreway Dr at 9400 Goreway Dr,43.760726,-79.694556,5350576.57
00017070,Goreway Dr opp 9658 Goreway Dr,43.765816,-79.701379,5350576.57
00017075,Goreway Dr n/of Cottrelle Blvd,43.770524,-79.707765,5350576.82
00017090,Airport Road - Zum Bovaird Station Stop WB,43.762611,-79.723553,5350576.22
00017100,Bovaird Dr E btwn Airport Rd & Mountainash Rd,43.760286,-79.726476,5350576.22
00017120,Torbram - Zum Bovaird Station Stop WB,43.754069,-79.73467,5350576.46
00017125,Bovaird Dr btwn Torbram Rd and Sunny Meadow Blvd,43.751865,-79.737158,5350576.46
00017130,Bovaird Dr w/of Sunny Meadow Blvd,43.748868,-79.73996,5350576.2
00017135,Brampton Civic Hospital - Zum Bovaird Stop WB,43.74689,-79.741728,5350576.2
00017145,Brampton Civic Hospital - Zum Bovaird Stop EB,43.74686,-79.741131,5350562.06
00017150,Bramalea - Zum Bovaird Station Stop WB,43.744058,-79.744888,5350576.17
00017155,Bovaird Dr E btwn Bramalea Rd & Fernforest Dr,43.740804,-79.748436,5350576.17
00017160,Bovaird Dr E w/of Fernforest Dr,43.737782,-79.751756,5350576.16
00017180,Bovaird Dr E at Great Lakes Dr,43.730541,-79.759797,5350576.93
00017220,Bovaird Dr E at Richvale Dr S,43.719716,-79.772423,5350576.06
00017230,Kennedy - Zum Bovaird Station Stop WB,43.715386,-79.777406,5350576.05
00017240,Bovaird Dr E at Conestoga Dr,43.713417,-79.779518,5350576.05
00017250,Bovaird Dr E w/of Sunforest Dr,43.708391,-79.784304,5350576.07
00017260,Bovaird Dr E e/of Hurontario St,43.706577,-79.786364,5350576.07
00017270,Main - Zum Bovaird Station Stop WB,43.705478,-79.787576,5350576.07
00017280,Bovaird Dr W w/of Gillingham Dr,43.703023,-79.790207,5350576.07
00017285,Bovaird Dr btwn Van Kirk & Gillingham,43.701289,-79.791886,5350576.07
00017290,Bovaird Dr W w/of Van Kirk Dr,43.697781,-79.795834,5350576.07
00017310,Bovaird Dr W w/of Edenbrook Hill Dr,43.691035,-79.803712,5350576.44
00017320,Chinguacousy - Zum Bovaird Station Stop WB,43.685958,-79.809124,5350577.07
00017330,Bovaird Dr W e/of Brisdale Dr,43.683682,-79.811611,5350577.07
00017525,The Gore Rd n/of Highway 50,43.758399,-79.644485,5350576.78
00017530,The Gore Rd opp Manswood Cres (S),43.761226,-79.648296,5350576.78
00017540,The Gore Rd opp Manswood Cres (N),43.76365,-79.65157,5350576.78
00017545,The Gore Rd opp Kelways Circle,43.764994,-79.653259,5350576.78
00017550,The Gore Rd n/of Queen St,43.766442,-79.655656,5350576.65
00017555,The Gore Rd s/of Fogal Rd,43.769367,-79.659158,5350576.65
00017560,The Gore Rd s/of Ebenezer Rd,43.771825,-79.662653,5350576.65
00017563,The Gore Rd n/of Ebenezer Rd,43.773063,-79.664257,5350576.62
00017565,The Gore Rd s/of Tyler Ave,43.775803,-79.667782,5350576.62
00017568,The Gore Rd s/of Eastbrook Way,43.7778,-79.67048,5350576.62
00017590,Westbrook Ave at Diploma Dr,43.773922,-79.672891,5350576.86
00017600,Westbrook Ave at Flatfield Way,43.775637,-79.675327,5350576.86
00017605,Cottrelle Blvd e/of Westbrook Ave,43.777084,-79.676822,5350576.86
00017620,The Gore Rd s/of Panahill Dr,43.782562,-79.67739,5350576.63
00017623,The Gore Rd s/of Cottrelle Blvd,43.779677,-79.67299,5350576.62
00017625,The Gore Rd s/of Gardenbrooke Trail,43.78281,-79.677238,5350576.97
00017627,Castle Oaks w/of Literacy Dr,43.789204,-79.681022,5350576.95
00017628,The Gore Rd n/of Cottrelle Blvd,43.780112,-79.67415,5350576.63
00017629,The Gore Rd at Eastview Gate,43.7794,-79.673124,5350576.86
00017630,The Gore Rd n/of Eastview Gate,43.777891,-79.671176,5350576.86
00017675,Via Romano Way btwn Alfredo and Big Moe Cres,43.778718,-79.658907,5350576.62
00017680,Via Romano Way at Zia Dodda Cres,43.780399,-79.66021,5350576.62
00017690,Via Romano Way btwn Zia Dodda & Youngestar,43.78172,-79.661881,5350576.62
00017700,Via Romano Way s/of Rednor Dr,43.783084,-79.663281,5350576.62
00017740,The Gore Rd opp Fogal Rd,43.769219,-79.659492,5350576.65
00017745,The Gore Rd n/of Royton St,43.770475,-79.6613,5350576.65
00017750,The Gore Rd at Queen St,43.766366,-79.656129,5350576.65
00017753,The Gore Rd n/of Kelways Circle,43.765119,-79.653958,5350576.78
00017755,The Gore Rd n/of Manswood Cres (N),43.763395,-79.651584,5350576.78
00017760,The Gore Rd n/of Manswood Cres (S),43.761755,-79.649332,5350576.78
00017770,The Gore Rd n/of Hwy 50,43.757814,-79.643769,5350576.78
00017960,County Court Blvd opp Turtlecreek Blvd,43.662763,-79.725973,5350528.2
00017970,County Court Blvd opp Seminole Dr,43.664241,-79.72387,5350528.2
00017980,County Court Blvd opp Mossbank Dr (S),43.66381,-79.721587,5350528.2
00017990,County Court opp Havelock Dr (E),43.66171,-79.72048,5350528.2
00018000,County Court Blvd opp Havelock Dr (W),43.660455,-79.721449,5350528.2
00018010,County Court Blvd opp Ray Lawson Blvd,43.658944,-79.723195,5350528.2
00018020,Ray Lawson Blvd e/of Malta Ave,43.65671,-79.725664,5350528.21
00018021,Ray Lawson Blvd e/of Cherrytree Dr (E),43.656687,-79.725331,5350528.22
00018030,Ray Lawson Blvd opp Cherrytree Dr (W),43.654435,-79.728097,5350528.21
00018031,Ray Lawson Blvd at Cherrytree Dr (W),43.654469,-79.72775,5350528.22
00018040,Ray Lawson Blvd at Timberlane Dr,43.653284,-79.732414,5350528.21
00018045,Ray Lawson Blvd at Windmill Blvd - 206 School Only,43.649893,-79.737586,5350528.31
00018050,Ray Lawson Blvd at McLaughlin Rd S,43.651472,-79.736156,5350528.21
00018053,McLaughlin Rd btwn Ray Lawson Blvd & Kingknoll Dr,43.652505,-79.738049,5350528.21
00018055,McLaughlin Rd s/of Sheridan College Dr,43.653913,-79.739853,5350528.21
00018060,McLaughlin Rd S s/of Ray Lawson Blvd,43.650602,-79.735991,5350528.31
00018070,McLaughlin Rd S at Oaklea Blvd,43.647993,-79.7325,5350528.5
00018080,Oaklea Blvd at Pauline Vanier E.S.(56 Oaklea Blvd),43.646531,-79.733871,5350528.5
00018100,Oaklea Blvd opp Rodwell Crt,43.646087,-79.737627,5350528.5
00018110,Ray Lawson Blvd at Stalbridge Ave,43.646154,-79.739601,5350528.5
00018120,Ray Lawson Blvd at Hickory Wood Jr. E.S.,43.645693,-79.742438,5350528.5
00018130,Ray Lawson Blvd at Kingknoll Dr,43.644386,-79.744714,5350528.5
00018135,Kingknoll Dr n/of Ray Lawson Blvd,43.644545,-79.745605,5350528.5
00018150,Kingknoll Dr opp Pennsylvania Ave,43.64677,-79.747148,5350528.5
00018170,Kingknoll Dr / Tulip Ave,43.649432,-79.744753,5350528.31
00018171,Kingknoll Dr e/of Ortona Dr,43.650151,-79.744248,5350528.31
00018175,Kingknoll Dr btwn Creditstone Rd & Pennsylvania Av,43.647459,-79.746962,5350528.31
00018180,Kingknoll Dr w/of Windmill Blvd,43.651506,-79.743115,5350528.31
00018190,Kingknoll Dr at 45 Kingknoll Dr (w/of McLaughlin),43.653275,-79.741217,5350528.31
00018205,Sheridan Rt 53 / 56 WB Stop,43.656442,-79.740551,5350528.21
00018290,Central Park Dr n/of Hanover Rd,43.722177,-79.724262,5350562.05
00018300,Central Park Dr n/of Howden Blvd,43.724836,-79.727029,5350562.05
00018310,Central Park Dr e/of Hilldale Cres (W),43.726374,-79.727756,5350562.05
00018370,Bramalea Rd n/of Trillium Crt,43.740591,-79.7389,5350562.06
00018380,Bramalea Rd at Professor's Lake Pky,43.741536,-79.740157,5350562.06
00018425,Bovaird Dr e/of Sunny Meadow Blvd,43.749794,-79.739275,5350576.46
00018430,Sunny Meadow Blvd s/of Thunderbird Trail,43.75037,-79.740928,5350576.46
00018440,Sunny Meadow Blvd s/of Peter Robertson Blvd,43.751681,-79.741752,5350576.46
00018540,Fernforest Dr opp Kimberly Cres (S),43.741494,-79.754287,5350576.16
00018550,Fernforest Dr at Softneedle Ave,43.739289,-79.753081,5350576.16
00018560,MacKay St N s/of Bovaird Dr E,43.73763,-79.750503,5350562.03
00018570,Mackay St N s/of Middleton Way,43.736462,-79.748493,5350562.03
00018580,Mackay St N at Mayberry Crt,43.735736,-79.74725,5350562.03
00018590,Mackay St N at Ashton Cres,43.735325,-79.74549,5350562.03
00018600,Mackay St N opp Morley Cres (S),43.735246,-79.743929,5350562.03
00018610,Mackay St S at Mangrove Rd,43.734403,-79.741308,5350562.04
00018630,Mackay St S at Maitland St,43.733307,-79.737456,5350562.04
00018640,Mackay St S n/of Mayfair Cres,43.732067,-79.735343,5350562.04
00018660,Williams Pky E opp Mansfield St (W),43.727327,-79.739715,5350562.04
00018670,Williams Pky E opp Mansfield St (E),43.728898,-79.737316,5350562.04
00018680,Dixie Rd s/of Williams Pky E,43.724933,-79.741796,5350562.02
00018690,Dixie Rd at Lascelles Blvd,43.723228,-79.739508,5350562.02
00018700,Dixie Rd opp Crescent Hill Dr (S),43.721061,-79.736547,5350562.02
00018710,Dixie Rd at Howden Blvd,43.719402,-79.73437,5350562.02
00018720,Dixie Rd at Hazelwood Dr,43.718208,-79.732758,5350562.02
00018730,Dixie Rd at Hillside Dr (n/of Queen St E),43.716109,-79.730022,5350562.02
00018740,Dixie Rd at Lisa St,43.713347,-79.726415,5350562.12
00018870,Hurontario St s/of Perth St,43.727992,-79.816726,5350576.31
00018885,Hurontario St s/of Roycrest St,43.730397,-79.820099,5350576.31
00018920,Mayfield Rd opp Summer Valley Dr,43.736164,-79.822183,5350576.31
00018930,Mayfield Rd w/of Inder Heights Dr,43.740521,-79.817654,5350576.09
00018940,Mayfield Rd w/of Kennedy Rd,43.743348,-79.814669,5350576.09
00018950,Kennedy Rd N s/of Kenpark Ave,43.741911,-79.812274,5350576.09
00018960,Kennedy Rd N at Carnforth Dr,43.738572,-79.80772,5350576.09
00018970,Kennedy Rd N opp Christie Dr,43.737268,-79.805923,5350576.09
00019060,Sandalwood Pkwy w/of Kennedy Rd,43.727864,-79.793488,5350576.05
00019070,Kennedy Rd N opp Piedmont Dr,43.725764,-79.790272,5350576.05
00019080,Kennedy Rd N opp Heart Lake Medical Bldg,43.724146,-79.78802,5350576.05
00019090,Kennedy Rd N at Ruth Ave,43.72302,-79.786494,5350576.05
00019100,Kennedy Rd N btwn Ruth Ave & Wexford Rd,43.721024,-79.783763,5350576.05
00019110,Kennedy Rd N at Wexford Rd,43.719507,-79.781711,5350576.05
00019120,Kennedy Rd n/of Bovaird Dr,43.716266,-79.777378,5350576.05
00019130,Kennedy Rd N btwn Bovaird Dr E & Centre St N,43.713689,-79.773852,5350575.05
00019140,Kennedy Rd N at Centre St N,43.711669,-79.771202,5350575.05
00019150,Kennedy Rd N btwn Centre St N & Williams Pky E,43.709789,-79.768588,5350575.05
00019160,Kennedy Rd n/of Williams Pky,43.708471,-79.766922,5350575.05
00019170,Kennedy Rd N at Linkdale Rd,43.706142,-79.763755,5350575.01
00019180,Kennedy Rd at Vodden St,43.702714,-79.759125,5350575.01
00019190,Kennedy Rd N opp Centennial Mall Private Entrance,43.701408,-79.757375,5350575.02
00019200,Kennedy Rd N at Edgemont Dr,43.700032,-79.755547,5350575.02
00019210,Kennedy Rd N at McCaul St,43.698765,-79.753844,5350575.02
00019220,Kennedy Rd N at Church St E,43.69775,-79.752485,5350575.02
00019230,Kennedy Rd S s/of Queen St E,43.695192,-79.749143,5350571.01
00019240,Kennedy Rd S s/of Eastern Ave,43.693508,-79.74682,5350571.01
00019250,Kennedy Rd S at Orenda Rd,43.692361,-79.745272,5350571.01
00019260,Kennedy Rd n/of Clarence St,43.689892,-79.742022,5350571.01
00019270,Kennedy Rd S at Research Rd,43.687994,-79.739425,5350571.02
00019280,Kennedy Rd S at Dean St,43.686851,-79.737877,5350571.02
00019290,Kennedy Rd S at Tullamore Crt (Tullamore Nursing),43.684991,-79.73537,5350571.02
00019300,Kennedy Rd S s/of Tullamore Crt,43.683713,-79.733642,5350570.01
00019310,Kennedy Rd S at Chamney Crt,43.682276,-79.73173,5350570.01
00019320,Kennedy Rd s/of Chamney Crt,43.681153,-79.730235,5350570.01
00019330,Kennedy Rd S s/of Rambler Dr,43.678763,-79.727026,5350570.01
00019340,Kennedy Rd S at 365 Kennedy Rd S,43.677296,-79.725066,5350570.01
00019350,Kennedy Rd n/of Steeles Ave,43.676309,-79.723769,5350570.01
00019360,Kennedy Rd S s/of Steeles Ave E,43.67492,-79.721916,5350528.2
00019370,Kennedy Rd S at Hartford Trail,43.672711,-79.718161,5350528.2
00019372,Kennedy Rd S at Brampton Golf Club (7700 Kennedy),43.669734,-79.714209,5350528.2
00019375,Kennedy Rd S opp CAA Centre,43.667935,-79.711814,5350528.2
00019378,Kennedy Rd at 7580 Kennedy Rd,43.667707,-79.711027,5350570.01
00019570,Kennedy Rd S at CAA Centre,43.66668,-79.709597,5350570.01
00019575,Kennedy Rd at 7725 Kennedy Rd,43.669974,-79.714062,5350570.01
00019610,Kennedy Rd S n/of Steeles Ave E,43.67623,-79.723212,5350570.01
00019620,Kennedy Rd S at 370 Kennedy Rd S,43.677738,-79.725238,5350570.01
00019630,Kennedy Rd opp Rambler Dr,43.679023,-79.727019,5350570.01
00019640,Kennedy Rd S n/of Rambler Dr,43.680951,-79.729602,5350570.01
00019650,Kennedy Rd S at Glidden Rd,43.68213,-79.731177,5350570.01
00019660,Kennedy Rd S opp Tullamore Rd,43.684125,-79.733846,5350570.01
00019670,Kennedy Rd S at Stafford Dr,43.685561,-79.735787,5350570.01
00019680,Kennedy Rd S opp Dean St (at 110 Kennedy Rd ),43.687008,-79.737725,5350570.01
00019690,Kennedy Rd S opp Research Rd (at 90 Kennedy Rd ),43.687906,-79.738914,5350570.01
00019700,Kennedy Rd s/of Clarence St,43.689537,-79.741097,5350570.01
00019710,Kennedy Rd S n/of Orenda Rd,43.693019,-79.745783,5350570.01
00019720,Kennedy Rd S at Eastern Ave,43.693939,-79.747006,5350570.01
00019730,Kennedy Rd S at Queen St E,43.695344,-79.748798,5350570.01
00019740,Kennedy Rd N opp Church St,43.697629,-79.751934,5350575.04
00019750,Kennedy Rd N opp Edgemont Dr,43.700271,-79.755425,5350575.04
00019760,Kennedy Rd N at Centennial Mall,43.701558,-79.75713,5350575.04
00019770,Kennedy Rd n/of Vodden St,43.703186,-79.759346,5350575.03
00019780,Kennedy Rd N at Townsend Gate,43.705816,-79.762885,5350575.03
00019790,Kennedy Rd s/of Williams Pky,43.708356,-79.766266,5350575.03
00019800,Kennedy Rd N n/of Williams Pky E,43.709922,-79.768443,5350575.08
00019810,Kennedy Rd N at Rutherford Rd N,43.711603,-79.7706,5350575.08
00019820,Kennedy Rd N btwn Rutherford Rd N & Bovaird Dr E,43.713484,-79.773236,5350575.08
00019830,Kennedy Rd s/of Bovaird Dr,43.715657,-79.775979,5350575.08
00019840,Kennedy Rd N at Notre Dame Ave,43.719166,-79.780852,5350576.06
00019850,Kennedy Rd N btwn Notre Dame Ave & Cochrane Ave,43.721192,-79.783648,5350576.06
00019860,Kennedy Rd N at Cochrane Ave,43.72282,-79.785819,5350576.06
00019870,Kennedy Rd N at Heart Lake Medical,43.724124,-79.787586,5350576.06
00019880,Kennedy Rd N at Piedmont Dr,43.725734,-79.789823,5350576.06
00019890,Kennedy Rd N n/of Piedmont Dr,43.727067,-79.791622,5350576.06
00019900,Kennedy Rd N at Sandalwood Pky E,43.727998,-79.792782,5350576.06
00019928,Heart Lake Terminal Route 7 NB - Arrival,43.72792,-79.79821,5350576.09
00019930,Heart Lake Terminal Route 7 / 7A SB - Departure,43.727939,-79.798234,5350576.09
00020200,Bramalea Rd n/of Fleetwood Cres,43.721962,-79.713914,5350564.02
00020270,Queen St btwn Gateway Blvd & Airport Rd,43.74038,-79.699158,5350576.79
00020300,Queen St E e/of Delta Park Blvd,43.746506,-79.692019,5350576.78
00020310,Queen St w/of Auction Lane,43.749832,-79.688064,5350576.78
00020355,Chrysler Dr s/of Williams Pky E,43.748287,-79.71416,5350576.79
00021100,Queen St E w/of Palleschi Dr,43.765197,-79.661737,5350576.65
00021135,Queen St e/of Sun Pac Blvd,43.750946,-79.687392,5350576.78
00021137,Queen St E at Maritime Ontario,43.745823,-79.693447,5350576.78
00021160,Queen St E at Canadian Tire,43.740465,-79.699715,5350576.79
00021200,Torbram Rd n/of Queen St E,43.734883,-79.708062,5350562.09
00021210,Bramalea Rd at Kensington Rd,43.723254,-79.716016,5350563.01
00022620,Bartley Bull Pkwy e/of Main St,43.66786,-79.734793,5350570.02
00022640,Bartley Bull Pky at Golf View Dr,43.670382,-79.732269,5350570.02
00022650,Bartley Bull Pky at Caldwell Cres (W),43.672116,-79.729222,5350570.02
00022660,Bartley Bull Pky at Orchard Dr,43.673988,-79.726785,5350570.02
00022670,Bartley Bull Pky opp Kilmanagh Crt,43.675408,-79.726222,5350570.01
00022680,Bartley Bull Pky at Rambler Dr,43.677577,-79.728692,5350570.01
00022690,Bartley Bull Pky s/of Robert Cres,43.679334,-79.731476,5350570.01
00022700,Bartley Bull Pky btwn Roberts Cres & Tullamore Rd,43.681554,-79.733948,5350570.01
00022710,Bartley Bull Pky at Tullamore Rd,43.682312,-79.735576,5350570.01
00022720,Harper Rd n/of Bartley Bull Pkwy,43.680833,-79.737858,5350571.02
00022730,Harper Rd at Jersey Ave,43.68221,-79.740261,5350571.02
00022740,Harper Rd s/of Cornwall Rd,43.683429,-79.742379,5350571.02
00022760,Sterne Ave n/of Eldomar Ave,43.684391,-79.743643,5350571.02
00022770,Sterne Ave at Clarence St,43.685874,-79.745633,5350571.02
00022780,Centre St at Hardwick Dr,43.686598,-79.746809,5350571.01
00022790,Centre St n/of Ardglen Dr,43.687919,-79.749145,5350571.01
00022800,Centre St S at John St,43.690194,-79.753628,5350571.01
00022810,Centre St s/of Wilson Ave,43.691426,-79.755768,5350575.02
00022820,Centre St N n/of Church St,43.692887,-79.758267,5350575.02
00022830,Centre St N at Woodward Ave,43.693936,-79.760105,5350575.02
00022840,Centre St N n/of Beech St,43.696666,-79.762723,5350575.02
00022850,Centre St N n/of Vodden St E,43.69804,-79.76451,5350575.01
00022860,Centre St N n/of Tolton (Sr. John A. McDonald PS),43.699249,-79.766566,5350575.01
00022875,Centre St N opp Prouse Dr,43.702207,-79.77073,5350575.01
00022880,Centre St N n/of Williams Pky E,43.703827,-79.772913,5350575.05
00022890,Centre St N at Claypine Trail,43.706048,-79.771615,5350575.05
00022900,Centre St N at Blackthorn Lane (N),43.708265,-79.771825,5350575.05
00022910,Centre St N opp Foster Cres,43.70968,-79.772612,5350575.05
00022920,Centre St N at Kennedy Rd N,43.711381,-79.770978,5350575.05
00022930,Rutherford Rd N e/of Kennedy Rd N,43.712236,-79.770089,5350575.08
00022940,Rutherford Rd at Weybridge Trail (W),43.713494,-79.768538,5350575.08
00022950,Rutherford Rd N opp Wikander Way,43.713595,-79.766416,5350575.08
00022960,Rutherford Rd at Weybridge Trail (E),43.713857,-79.763677,5350575.08
00022970,Rutherford Rd opp Carl Dalli Ct,43.712721,-79.760087,5350575.03
00022980,Rutherford Rd N at Bruce Beer Dr (S),43.709452,-79.757554,5350575.03
00022990,Rutherford Rd N opp Century Gardens Park,43.707975,-79.756684,5350575.03
00023000,Rutherford Rd n/of Vodden St,43.70701,-79.754762,5350575.03
00023010,Rutherford Rd N at Reigate Ave,43.70591,-79.750199,5350575.04
00023020,Rutherford Rd n/of Madoc Dr,43.704466,-79.747806,5350575.04
00023030,Rutherford Rd n/of Archdekin Dr,43.70286,-79.744642,5350575.04
00023040,Queen St E w/of Hwy 410 Ramp ( at Burger King ),43.70317,-79.740688,5350570.01
00023058,Queen St w/of Dixie Rd,43.713638,-79.729076,5350562.12
00023070,Peel Centre Dr e/of BCC Entrance (opp ROP Bldg),43.717339,-79.723411,5350563.01
00023140,Team Canada Dr btwn Knightsbridge & Peel Cente Dr,43.71765,-79.719575,5350563.01
00023150,Peel Centre Dr at Region of Peel Bldg.,43.71855,-79.722318,5350563.01
00023180,Queen St E w/of Hwy 410 (Petro Canada),43.703861,-79.74047,5350575.04
00023190,Rutherford Rd N n/of Queen St E,43.702254,-79.742905,5350575.04
00023200,Rutherford Rd N n/of Archdekin Dr (S),43.702996,-79.744509,5350575.04
00023210,Rutherford Rd s/of Madoc Dr,43.704396,-79.747285,5350575.04
00023220,Rutherford Rd N at Herkley Dr,43.706221,-79.750375,5350575.04
00023230,Rutherford Rd s/of Vodden St,43.706955,-79.754044,5350575.04
00023235,Rutherford Rd n/of Vodden St,43.707542,-79.755621,5350575.03
00023250,Rutherford Rd N at Archdekin Dr (N),43.709673,-79.757438,5350575.03
00023260,Rutherford Rd n/of Carl Dalli Ct,43.712928,-79.759991,5350575.03
00023265,Rutherford Rd N btwn Williams Pky & Wikander Way,43.714315,-79.762461,5350575.08
00023270,Rutherford Rd N w/of Thorson Gate,43.713679,-79.764687,5350575.08
00023290,Rutherford Rd e/of Winterfold Dr,43.713864,-79.767642,5350575.08
00023300,Rutherford Rd N at Kennedy Rd N,43.711925,-79.7707,5350575.08
00023310,Centre St N at Foster Cres,43.709645,-79.772831,5350575.05
00023320,Centre St N s/of Dawson Cres,43.708112,-79.771927,5350575.05
00023330,Centre St N opp Claypine Trail,43.706134,-79.771782,5350575.05
00023340,Centre St N at Williams Pky E,43.703439,-79.772686,5350575.05
00023350,Centre St N at Linkdale Rd,43.701613,-79.770212,5350575.01
00023360,Centre St N at Tolton Dr,43.698814,-79.765877,5350575.01
00023370,Centre St N at Vodden St E,43.697458,-79.764039,5350575.02
00023390,Centre St N at Scott St,43.694067,-79.760579,5350575.02
00023400,Centre St N at Church St,43.6926,-79.758031,5350575.02
00023410,Centre St N at Queen St E,43.690848,-79.754997,5350575.02
00023430,Centre St S at Haslemere Ave,43.687904,-79.749667,5350571.01
00023440,Centre St n/of Hardwick Dr,43.686883,-79.747406,5350571.01
00023450,Sterne Ave s/of Clarence St,43.685535,-79.745424,5350571.02
00023460,Sterne Ave at Eldomar Ave,43.684175,-79.743584,5350571.02
00023480,Harper Rd n/of Golding Ave,43.683194,-79.74222,5350571.02
00023490,Harper Rd opp Jersey Ave,43.682262,-79.740598,5350571.02
00023500,Harper Rd at Bartley Bull Pky,43.680609,-79.737705,5350571.02
00023510,Bartley Bull Pky opp Tullamore Rd,43.682152,-79.735896,5350570.02
00023520,Bartley Bull Pky btwn Tullamore Rd & Roberts Cres,43.681499,-79.73408,5350570.02
00023530,Bartley Bull Pky at Roberts Cres,43.680049,-79.732463,5350570.02
00023540,Bartley Bull Pky at Watson Cres,43.678839,-79.731113,5350570.02
00023550,Bartley Bull Pky at Caledon Cres,43.677465,-79.728722,5350570.02
00023560,Bartley Bull Pky s/of Kilmanagh Crt,43.675222,-79.726336,5350570.02
00023570,Bartley Bull Pky opp Orchard Dr,43.674261,-79.726625,5350570.02
00023580,Bartley Bull Pky opp Caldwell Cres (W),43.672379,-79.729075,5350570.02
00023590,Bartley Bull Pky at Erindale Cres,43.671002,-79.730691,5350570.02
00023600,Bartley Bull Pky at Bartley Bull Pky,43.670525,-79.733391,5350570.02
00023610,Bartley Bull Pkwy at Main St S,43.668885,-79.734048,5350570.02
00023635,Williams Pky e/of Murray St,43.697633,-79.778835,5350573.03
00023840,Central Park Dr at Bramalea Rd,43.729402,-79.724686,5350562.05
00023880,Central Park Dr at Hilldale Cres (E),43.729,-79.725544,5350562.05
00023890,Central Park Dr at Hilldale Cres (W),43.726173,-79.728052,5350562.11
00023900,Central Park Dr s/of Howden Blvd,43.723767,-79.726294,5350562.05
00023910,Central Park Dr s/of Hanover Rd,43.721034,-79.723103,5350562.05
00024260,Jordan Blvd at Jayfield Rd,43.739942,-79.727017,5350562.07
00024430,Jordan Blvd at Williams Pky E,43.738641,-79.725683,5350562.07
00024830,Vodden St E at Ken Whillans Dr,43.694522,-79.767531,5350574.0
00024840,Vodden St w/of Centre St,43.697552,-79.764311,5350575.02
00024850,Vodden St E at Post Rd,43.698843,-79.762875,5350575.02
00024855,Vodden St E at Cumberland Dr,43.701046,-79.760485,5350575.02
00024860,Vodden St w/of Kennedy Rd,43.702217,-79.759065,5350575.02
00024870,Vodden St w/of Hansen Rd,43.70388,-79.75729,5350575.04
00024880,Vodden St w/of Rutherford Rd,43.706805,-79.754401,5350575.04
00024890,Vodden St E e/of Robwill Crt,43.707836,-79.753264,5350575.04
00024900,Vodden St E w/of Archdekin Dr,43.709843,-79.750947,5350575.04
00024910,Vodden St E at 399 Vodden St E,43.711296,-79.749248,5350575.04
00024920,Vodden St E e/of Lansdowne Dr,43.713036,-79.744585,5350562.02
00024930,Vodden St E at Laurelcrest St,43.714253,-79.742371,5350562.02
00024940,Vodden St E at Howden Blvd,43.716291,-79.741712,5350562.02
00024980,Howden Blvd e/of Hedgeson Crt (Howden Rec Centre),43.722311,-79.730324,5350562.05
00024990,Howden Blvd w/of Heathcliffe Square,43.7237,-79.728331,5350562.05
00025030,Central Park Dr at Gleneaden Crt,43.73183,-79.721927,5350562.09
00025050,Central Park Dr opp Greenbriar Rec Centre,43.735185,-79.715658,5350562.09
00025060,Central Park Dr at Torbram Rd,43.738204,-79.713008,5350562.09
00025080,Corporation Dr at Bramkay St,43.740272,-79.710355,5350576.79
00025090,Chrysler Dr n/of Corporation Dr,43.743568,-79.707448,5350576.79
00025095,Chrysler Dr at 255 Chrysler Dr,43.744977,-79.709366,5350576.79
00025120,Chrysler Dr at Williams Pky E,43.748523,-79.714059,5350576.79
00025130,Williams Pkwy at 1995 Williams Pkwy,43.751504,-79.710815,5350576.79
00025140,Williams Pky E at Airport Rd,43.752681,-79.709362,5350576.79
00025150,Williams Pky E at Spar Dr,43.754586,-79.707172,5350576.78
00025160,Williams Pky E at 2021 Williams Pky E,43.756971,-79.704441,5350576.78
00025170,Williams Pky E w/of Sun Pac Blvd,43.759083,-79.702008,5350576.78
00025175,Williams Pkwy at Sun Pac Blvd,43.760359,-79.700553,5350576.78
00025180,Sun Pac Blvd at 10 Sun Pac Blvd.,43.759311,-79.698226,5350576.78
00025320,Williams Pkwy at 2500 Williams Pkwy,43.758759,-79.70281,5350576.78
00025330,Williams Pky E at 2150 Williams Pky E,43.756398,-79.705506,5350576.78
00025340,Williams Pky E e/of Airport Rd,43.754192,-79.708023,5350576.78
00025350,Williams Pky E opp 1995 Williams Pky E,43.751707,-79.711014,5350576.79
00025360,Williams Pky E at Chrysler Dr,43.749114,-79.7146,5350576.79
00025370,Chrysler Dr at Bramtree Crt,43.746279,-79.711419,5350576.79
00025375,Chrysler Dr at 395 Chrysler Dr,43.746401,-79.711255,5350576.79
00025380,Chrysler Dr at 250 Chrylser Dr,43.744889,-79.709554,5350576.79
00025390,Chrysler Dr at Corporation Dr,43.743194,-79.707352,5350576.79
00025400,Corporation Dr at Precidio Crt,43.740771,-79.710003,5350576.79
00025410,Corporation Dr at Torbram Rd,43.738836,-79.712568,5350576.79
00025415,Central Park Dr btwn Greenmount and Torbram Rd,43.737565,-79.713994,5350562.08
00025420,Central Park Dr at Greenbriar Rec Centre,43.735699,-79.715427,5350562.08
00025440,Central Park Dr btwn Grenoble Blvd & Glenforest Rd,43.731759,-79.722345,5350562.08
00025450,Central Park Dr e/of Bramalea Rd,43.730118,-79.724264,5350562.08
00025480,Howden Blvd at Hunt Club Dr,43.724043,-79.727847,5350562.11
00025490,Howden Blvd at Horton Cres (W),43.722493,-79.730485,5350562.11
00025500,Howden Blvd e/of Highview Trail,43.720879,-79.731858,5350562.11
00025530,Vodden St E w/of Howden Blvd,43.716312,-79.741922,5350562.02
00025535,Vodden St E at Leeward Dr,43.714903,-79.742399,5350562.02
00025540,Vodden St E w/of Lakeridge Dr,43.713227,-79.745438,5350562.02
00025550,Vodden St E at Hwy 410,43.712106,-79.7486,5350575.03
00025560,Vodden St E at Archdekin Dr,43.71025,-79.750785,5350575.03
00025570,Vodden St E at Century Gardens,43.708367,-79.752971,5350575.03
00025580,Vodden St e/of Rutherford Rd,43.707294,-79.754216,5350575.03
00025590,Vodden St e/of Hansen Rd,43.704412,-79.757049,5350575.03
00025600,Vodden St e/of Kennedy Rd,43.703225,-79.758335,5350575.03
00025610,Vodden St E w/of Kennedy Rd N,43.702127,-79.759573,5350575.01
00025620,Vodden St E at Garfield Cres (E),43.700693,-79.761163,5350575.01
00025640,Vodden St e/of Centre St,43.697976,-79.76414,5350575.01
00025650,Vodden St E opp Ken Whillans Dr,43.6946,-79.767776,5350575.01
00025700,Sun Pac Blvd at Ward Rd,43.757986,-79.696528,5350576.78
00025710,Sun Pac Blvd at Progress Crt,43.756039,-79.693974,5350576.78
00025720,Sun Pac Blvd btwn Progress Crt & Exchange Dr,43.754704,-79.692164,5350576.78
00025740,Sun Pac Blvd btwn Exchange Dr & Progress Crt,43.754702,-79.69187,5350576.78
00025750,Sun Pac Blvd opp Progress Crt,43.756488,-79.694281,5350576.78
00025760,Sun Pac Blvd opp Ward Rd,43.758169,-79.696508,5350576.78
00025770,Sun Pac Blvd s/of Williams Pkwy,43.760084,-79.698967,5350576.78
00025840,Mount Pleasant GO Station  Route 29/29A/215 Stop,43.674516,-79.822201,5350577.0
00025890,Williams Pky W at Chinguacousy Rd,43.681427,-79.802774,5350576.29
00025900,Williams Pky W at Withers Way,43.682906,-79.79958,5350573.09
00025910,Williams Pky W at Oxtail Lane,43.682919,-79.794791,5350573.09
00025920,Williams Pkwy W e/of Fletchers Creek Blvd,43.684759,-79.790409,5350573.09
00025950,Williams Pky W e/of Vodden St W,43.690693,-79.784504,5350573.07
00025960,Williams Pky W e/of RR Crossing,43.69399,-79.781027,5350573.03
00025980,Williams Pky w/of Murray St,43.69718,-79.778918,5350573.03
00025990,Williams Pky at Main St,43.698499,-79.777498,5350573.03
00026000,Williams Pky E at Elderwood Place,43.701316,-79.773847,5350575.01
00026010,Williams Pky E w/of Centre St N,43.702829,-79.7724,5350575.01
00026020,Williams Pky E btwn Centre St N & Kennedy Rd N,43.705547,-79.76954,5350575.01
00026030,Williams Pky w/of Kennedy Rd,43.708133,-79.766708,5350575.01
00026040,Williams Pkwy btwn Kennedy Rd & Rutherford Rd,43.710507,-79.764108,5350575.03
00026050,Williams Pky w/of Rutherford Rd,43.713279,-79.761063,5350575.03
00026060,Williams Pky opp Southlake Blvd,43.714091,-79.758113,5350575.03
00026070,Williams Pky E w/of Hwy 410,43.714062,-79.755189,5350575.03
00026075,Williams Pky E e/of Hwy 410,43.717075,-79.749893,5350562.02
00026080,Williams Pkwy w/of Howden Blvd,43.719957,-79.746845,5350562.02
00026090,Williams Pky E at Dixie Rd,43.724957,-79.742608,5350562.02
00026100,Williams Pky E at Mansfield St (W),43.726838,-79.739977,5350562.11
00026110,Williams Pky E at Mansfield St (E),43.728486,-79.737571,5350562.11
00026120,Williams Pky E btwn Mansfield St and Mackay St S,43.730028,-79.734691,5350562.05
00026150,Williams Pky E e/of Bramalea Rd,43.73431,-79.72963,5350562.08
00026155,Williams Pkwy e/of Glenridge Rd,43.73631,-79.727322,5350562.08
00026160,Williams Pky E at Grenoble Blvd,43.738326,-79.725352,5350562.08
00026170,Williams Pky E at Graymar Rd,43.740967,-79.723049,5350562.08
00026180,Williams Pky E at Torbram Rd,43.743421,-79.720947,5350562.08
00026190,Williams Pky E at Bramtree Crt,43.746015,-79.717801,5350576.79
00026200,Williams Pky E w/of Chrysler Dr,43.748444,-79.715005,5350576.79
00026450,Williams Pky E opp Bramtree Crt,43.746583,-79.717653,5350576.79
00026460,Williams Pky E w/of Torbram Rd,43.743754,-79.720986,5350562.07
00026470,Williams Pky E opp Graymar Rd,43.741309,-79.723139,5350562.07
00026480,Williams Pky E w/of Jordan Blvd,43.738266,-79.725767,5350562.07
00026490,Williams Pky E at Chinguacousy S.S.,43.73681,-79.727164,5350562.07
00026500,Williams Pky E w/of Bramalea Rd,43.733798,-79.730629,5350562.04
00026540,Williams Pky E w/of Dixie Rd,43.725109,-79.742811,5350562.14
00026550,Williams Pkwy w/of North Park Dr,43.720079,-79.747206,5350562.15
00026552,Williams Pky at GO Carpool Parking Lot,43.716962,-79.750391,5350562.15
00026570,Williams Pky at Southlake Blvd,43.71433,-79.757434,5350575.07
00026580,Williams Pky e/of Rutherford Rd,43.713802,-79.760693,5350575.08
00026590,Williams Pkwy btwn Rutherford Rd & Kennedy Rd,43.711035,-79.763957,5350575.08
00026600,Williams Pky e/of Kennedy Rd,43.708825,-79.766368,5350575.08
00026605,Williams Pkwy btwn Kennedy Rd & Centre St,43.705705,-79.769824,5350575.05
00026610,Williams Pky E e/of Centre St N,43.703704,-79.771997,5350575.05
00026620,Williams Pky E at Baronwood Crt,43.701089,-79.774533,5350575.05
00026630,Williams Pky w/of Main St,43.698572,-79.777822,5350573.03
00026650,Williams Pky W at Harridine Rd,43.695907,-79.780289,5350573.03
00026655,Williams Pky W w/of Harridine Rd,43.694443,-79.781009,5350573.03
00026660,Williams Pky W w/of Railway Crossing,43.693015,-79.782304,5350573.06
00026700,Williams Pky W opp Oxtail Lane,43.683161,-79.794712,5350573.11
00026710,Williams Pky W e/of Whitewash Way,43.683474,-79.797026,5350573.11
00026720,Williams Pky W at Whitewash Way,43.683306,-79.798986,5350573.11
00026730,Williams Pky W w/of Chinguacousy Rd,43.681657,-79.80295,5350576.29
00026735,Williams Pky W btwn Whitewash Way & Chinguacousy,43.682887,-79.800895,5350573.11
00026790,County Court South - Zum Main Station Stop NB,43.659121,-79.723637,5350528.2
00026800,County Court North - Zum Main Station Stop NB,43.662216,-79.727771,5350528.2
00027000,The Gore Rd opp Strathdale Rd,43.784955,-79.680279,5350576.97
00027010,The Gore Rd n/of Castle Oaks Crossing,43.787436,-79.68341,5350576.95
00027012,The Gore Rd opp Fitzpatrick Dr,43.788587,-79.684996,5350576.95
00027013,The Gore Rd opp Castlemore School,43.789934,-79.686862,5350576.95
00027020,The Gore Rd s/of Castlemore Rd,43.79181,-79.68937,5350576.95
00027040,Castlemore Rd w/of Bloom Dr,43.79412,-79.687039,5350576.95
00027045,Castlemore Rd w/of Gardenbrooke Tr,43.796528,-79.68424,5350576.95
00027050,Gardenbrooke Tr s/of Snowpass St,43.795716,-79.682743,5350576.95
00027080,Castle Oaks Cross at Cardinal Ambrozic S.S.,43.788107,-79.681968,5350576.95
00027200,The Gore Rd s/of Strathdale Rd,43.78436,-79.679903,5350576.63
00027205,Gardenbrooke Tr s/of Academy Dr,43.794121,-79.681612,5350576.95
00027206,Gardenbrooke Tr n/of Bliss St,43.793331,-79.680646,5350576.95
00027207,Gardenbrooke Tr n/of Castle Oaks Cross,43.791249,-79.678844,5350576.95
00030000,Fairhill Ave e/of Creditview Rd,43.682351,-79.827082,5350577.09
00030012,Commuter Dr n/of Signal Lane,43.677275,-79.824659,5350577.09
00030015,Mount Pleasant Village - Route 23 Stop,43.675501,-79.82188,5350577.09
00030020,Bleasdale Ave s/of Clenston Rd,43.677819,-79.823201,5350577.09
00030025,Bleasdale Ave s/of Haverty Tr,43.678849,-79.826298,5350577.09
00030030,Bleasdale Ave s/of Creditview Rd,43.6794,-79.827904,5350577.09
00030035,Creditview Rd s/of Fairhill Ave,43.681875,-79.827295,5350577.09
00030100,Brampton Gateway Terminal Route 4/4A/104 Stop,43.66495,-79.734601,5350572.05
00030101,Brampton Gateway Terminal Route 53 / 56 Stop,43.665191,-79.73431,5350572.05
00030102,Brampton Gateway Terminal Route 11/51/511/511C WB,43.66542,-79.734069,5350572.05
00030106,Brampton Gateway Terminal Route 57 Stop,43.665258,-79.734394,5350572.05
00030107,Brampton Gateway Terminal Route 3/3A Stop,43.665436,-79.734216,5350572.05
00030108,Brampton Gateway Terminal Route 11/11A EB Stop,43.665614,-79.734039,5350572.05
00030109,Brampton Gateway Terminal Route 511/511A/511C EB,43.66582,-79.73396,5350572.05
00030110,Brampton Gateway Terminal Route 502 NB Stop,43.666027,-79.733956,5350572.05
00030111,Brampton Gateway Terminal Route 2 NB Stop,43.66628,-79.733988,5350572.05
00030112,Brampton Gateway Terminal Route 52 Stop,43.666454,-79.734319,5350572.05
00030113,Brampton Gateway Terminal Route 54 / 199 Stop,43.666673,-79.734587,5350572.05
00030117,Brampton Gateway Terminal Route 2/502 SB,43.666184,-79.733628,5350572.05
00040030,Cottrelle Blvd w/of Redwillow Rd,43.773078,-79.700656,5350576.82
00040035,Cottrelle Blvd at Eastway St - School Only,43.762457,-79.711633,5350576.78
00040036,Cottrelle Blvd at Dwyer Dr - School Only,43.760267,-79.714164,5350576.78
00040037,Cottrelle Blvd e/of Airport Rd - School Only,43.759015,-79.715728,5350576.78
00040040,Cottrelle Blvd w/of Valleycreek Dr,43.772155,-79.704167,5350576.82
00040050,Cottrelle Blvd at Goreway Dr,43.770263,-79.706897,5350576.82
00040070,Sandalwood Pky w/of Cedarcliff Trail,43.766232,-79.746227,5350576.22
00040080,Sandalwood Pky E e/of Pine Landing Trail,43.766351,-79.739954,5350576.22
00040090,Sandalwood Pky w/of Mountainash Rd,43.766428,-79.737664,5350576.22
00040094,Sandalwood Pky at Soaring Rock Crt,43.767555,-79.734446,5350576.22
00040100,Sandalwood Pky E at Ice Fields Rd,43.767848,-79.732816,5350576.22
00040105,Sandalwood Pky E at Airport Rd,43.768314,-79.730953,5350576.22
00040120,Sandalwood Pky E at Revelstoke (w/of Airport Rd),43.768236,-79.73205,5350576.66
00040130,Sandalwood Pky E at Hidden Peak Dr,43.767956,-79.734008,5350576.66
00040140,Sandalwood Pky e/of Mountainash Rd,43.766896,-79.737201,5350576.66
00040150,Sandalwood Pky E at Pine Landing Trail,43.766633,-79.740268,5350576.89
00040160,Sandalwood Pky e/of Cedarcliff Trail,43.766615,-79.74565,5350576.89
00040170,Sandalwood Pky e/of Torbram Rd,43.765532,-79.74841,5350576.89
00040180,Sandalwood Pky E at Sugarcane Ave,43.763379,-79.751163,5350576.55
00040190,Sandalwood Pky E at Chapparal Dr,43.761766,-79.75242,5350576.55
00040195,Sandalwood Pky E at Blackcherry Lane,43.759794,-79.753234,5350576.55
00040200,Sandalwood Pky E at Sunny Meadow Blvd,43.757672,-79.754481,5350576.55
00040210,Sandalwood Pky e/of Queen Mary Dr,43.704817,-79.81467,5350576.5
00040220,Sandalwood Pky W btwn Queen Mary Dr & Edenbrook H,43.701003,-79.818505,5350576.5
00040230,Sandalwood Pky e/of Edenbrook Hill Dr,43.699551,-79.819789,5350576.5
00040240,Sandalwood Pky W w/of Chinguacousy Rd,43.696377,-79.82374,5350576.53
00040250,Sandalwood Pky W at St. Edmund Campion,43.694344,-79.829138,5350576.53
00040253,Sandalwood Pkwy w/of Brisdale Dr,43.693086,-79.830514,5350576.52
00040255,Sandalwood Pkwy e/of Crown Victoria Dr,43.691228,-79.832774,5350576.52
00040257,Sandalwood Pkwy w/of Sunnyview Rd,43.689947,-79.834213,5350576.52
00040260,Sandalwood Pky W at Fidelity Ave,43.69513,-79.827455,5350576.8
00040270,Sandalwood Pky W at Virtues Ave,43.69553,-79.825599,5350576.8
00040280,Sandalwood Pky W at Chinguacousy Rd,43.696364,-79.823132,5350576.8
00040290,Sandalwood Pky w/of Edenbrook Hill Dr,43.698938,-79.820072,5350576.44
00040300,Sandalwood Pky W btwn Sheepberry Tr & Queen Mary,43.70056,-79.818455,5350576.43
00040330,Brisdale Dr s/of Sugarhill Dr,43.700057,-79.836894,5350576.52
00040340,Brisdale Dr n/of Sugarhill Dr,43.70011,-79.836754,5350576.53
00040350,Brisdale at Jessop Dr,43.697455,-79.835363,5350576.53
00040360,Brisdale Dr opp Jessop Dr (at Buick Blvd),43.697571,-79.83577,5350576.52
00040370,Queen Mary Dr at Earlsbridge Blvd,43.710997,-79.823998,5350576.49
00040380,Queen Mary Dr at Kanata Rd,43.709219,-79.821373,5350576.5
00040390,Queen Mary Dr opp Echoridge Dr,43.707713,-79.819311,5350576.5
00040395,Queen Mary Dr n/of Thimbleberry St,43.705812,-79.817535,5350576.5
00040400,Queen Mary Dr at Sandalwood Pky W,43.704463,-79.815204,5350576.5
00040410,Van Scott Dr at Wandering Trail Dr,43.714895,-79.819965,5350576.34
00040420,Van Scott Dr at Brambirch Cres,43.714638,-79.820021,5350576.34
00040440,Earlsbridge Blvd at McLaughlin Rd N,43.713328,-79.821774,5350576.5
00040450,Earlsbridge Blvd at Queen Mary Dr,43.711266,-79.823506,5350576.49
00040460,Earlsbridge Blvd e/of Queen Mary Dr,43.7113,-79.823312,5350576.5
00040470,Earlsbridge Blvd at Lockburn Cres,43.708261,-79.823617,5350576.5
00040480,Earlsbridge Blvd at Clarion Rd,43.70763,-79.824231,5350576.49
00040490,Earlsbridge Blvd e/of Cipriano Crt,43.706848,-79.824856,5350576.5
00040510,Earlsbridge Blvd e/of Edenbrook Hill Dr,43.705878,-79.82593,5350576.5
00040520,Earlsbridge Blvd at Florence Dr,43.702985,-79.82785,5350576.49
00040555,Creditview Rd s/of Sandalwood Pky,43.688405,-79.835217,5350576.99
00040560,Creditview Rd s/of McCrimmon Dr,43.6855,-79.831299,5350576.99
00040561,Creditview Rd n/of Fairhill Ave,43.682471,-79.827785,5350576.99
00040562,Creditview Rd n/of Bleasdale Ave,43.679816,-79.828221,5350576.99
00040563,Creditview Rd btwn Bleasdale Ave & Veterans Dr,43.677604,-79.829353,5350576.99
00040564,Ganton Heights opp Bevington Rd,43.67647,-79.826326,5350577.09
00040566,Ganton Heights w/of Commuter Dr,43.676794,-79.824713,5350577.09
00040570,Fairhill Ave w/of Leagate St,43.682259,-79.826951,5350577.09
00040580,Fairhill Ave at Chestermere Cres,43.685057,-79.823732,5350577.08
00040610,Creditview Rd n/of McCrimmon Dr,43.686224,-79.831841,5350576.81
00040620,Creditview Rd n/of Sandalwood Pkwy,43.689247,-79.835926,5350576.52
00040625,Sandalwood Pkwy w/of Sunnyview Rd,43.690722,-79.832888,5350576.81
00040627,Sandalwood Pkwy at Brisdale Dr,43.693143,-79.830026,5350576.81
00040630,Creditview Rd n/of El Camino Way,43.691342,-79.838788,5350576.52
00040660,Ray Lawson Blvd at Mavis Rd,43.642686,-79.746519,5350528.5
00040670,Clementine Dr w/of Mavis Rd,43.64298,-79.750636,5350528.52
00040680,Clementine Dr n/of Nathaniel Cres,43.642072,-79.7528,5350528.52
00040690,Clementine Dr at Maddybeth Cres,43.642962,-79.754847,5350528.52
00040700,Clementine Dr at Steeles Ave W,43.644175,-79.756742,5350528.52
00040710,Mavis Rd s/of Clementine Dr,43.6431,-79.749606,5350528.52
00040715,Ray Lawson Blvd e/of Mavis Rd,43.642545,-79.746301,5350528.51
00040720,McLaughlin Rd s/of Kingknoll Dr,43.653569,-79.739986,5350528.31
00040725,McLaughlin Rd btwn Kingknoll Dr & Ray Lawson Blvd,43.652322,-79.73825,5350528.31
00040740,Mountainash Rd s/of Sandalwood Pky,43.766415,-79.737123,5350576.22
00040750,Mountainash Rd opp Ice Fields Rd,43.766149,-79.737163,5350576.22
00040760,Mountainash Rd at Switchback Trail,43.768478,-79.738508,5350576.66
00040770,Mountainash Rd n/of Sandalwood Pky,43.766883,-79.737647,5350576.89
00040780,Mountainash Rd at Rockstep Crt,43.769077,-79.739236,5350576.89
00040790,Mountainash Rd at Stonecrest Rd,43.770121,-79.740019,5350576.66
00040800,Mountainash Rd n/of Kamloops Dr,43.771787,-79.742642,5350576.66
00040860,Heart Lake Rd n/of Birchcliffe Dr,43.734679,-79.778737,5350576.06
00040870,Heart Lake Rd at Copperfield Rd,43.731597,-79.774573,5350576.06
00040875,Heart Lake Rd s/of New Pines Trail,43.725691,-79.771058,5350576.06
00040880,Sandalwood Pky E btwn Fernforest Dr and Pinecone W,43.751102,-79.761828,5350576.17
00040890,Van Kirk Dr n/of Sandalwood Pkwy,43.709526,-79.810692,5350576.34
00040900,Creditview Rd n/of Buick Blvd,43.692986,-79.841053,5350576.52
00040910,Creditview Rd n/of Crown Victoria Dr,43.695292,-79.844165,5350576.52
00040920,Wanless Dr w/of Thornbush Blvd - 4A,43.697921,-79.844313,5350576.52
00040930,Brisdale Dr s/of Wanless Dr,43.701725,-79.839141,5350576.52
00040940,Chinguacousy Rd s/of Queen St,43.666008,-79.781202,5350577.05
00040950,Chinguacousy Rd s/of Bonnie Braes Dr,43.660876,-79.774088,5350577.05
00040960,Chinguacousy Rd s/of Dusk Dr,43.655959,-79.767415,5350577.05
00040970,Chinguacousy Rd at Queen St W,43.66633,-79.780859,5350572.1
00040980,Chinguacousy Rd n/of Sterritt Dr,43.661804,-79.774663,5350572.1
00040982,Chinguacousy Rd btwn Drinkwater & Sterritt,43.659371,-79.771405,5350572.1
00040984,Wanless Dr e/of Thornbush Blvd - 4A,43.698695,-79.843869,5350576.98
00040985,Chinguacousy Rd btwn Sterritt Dr & Queen St,43.66375,-79.777373,5350572.1
00040988,Creditview Rd opp Crown Victoria Dr,43.694556,-79.843628,5350576.98
00040990,Creditview Rd s/of Buick Blvd,43.69232,-79.840581,5350576.98
00040995,Creditview Rd s/of Tribune Dr,43.690623,-79.838254,5350576.98
00041120,Aiport Rd btwn Sandalwood Pky & Bovaird Dr,43.766333,-79.726719,5350576.22
00041180,Sandalwood Pky E w/of Torbram Rd,43.764781,-79.749442,5350576.55
00041955,Maisonneuve Blvd n/of Leparc Rd,43.79418,-79.752189,5350576.75
00042000,Maisonneuve Blvd n/of Sofitel Rd,43.793221,-79.75094,5350576.75
00042010,Maisonneuve Blvd n/of Mount Royal Cir,43.792015,-79.749284,5350576.75
00042045,Sandalwood Pky opp Fidelity Ave,43.695543,-79.826865,5350576.53
00042050,Mount Royal Circle n/of Lacoste Blvd,43.789801,-79.749389,5350576.75
00042055,Lacoste Blvd e/of Leparc Rd,43.78837,-79.751051,5350576.75
00042060,Lacoste Blvd e/of Airport Rd,43.787166,-79.753326,5350576.75
00042070,Airport Rd s/of Countryside Dr,43.78267,-79.748806,5350576.66
00042080,Airport Rd at Yellow Avens Blvd,43.778868,-79.74369,5350576.66
00042085,Airport Rd at Camrose St,43.777434,-79.741776,5350576.66
00042090,Airport Rd at Eagle Plains Dr,43.775611,-79.739323,5350576.66
00042095,Airport Rd at Sandalwood Pky E,43.769383,-79.73087,5350576.66
00042100,Airport Rd at Stonecrest Dr,43.773058,-79.735835,5350576.66
00042110,Peter Robertson Blvd e/of Bramalea Rd,43.746786,-79.746479,5350576.2
00042120,Peter Robertson opp Coachwhip Rd (Hospital Ent),43.748645,-79.744425,5350576.2
00042130,Peter Robertson Blvd btn Dusty Star & Sunny Meadow,43.750566,-79.742877,5350576.2
00042150,Peter Robertson Blvd e/of Velvet Grass Ln,43.74865,-79.744721,5350576.2
00042160,Peter Robertson Blvd e/of Dusty Star Rd,43.750677,-79.743076,5350576.2
00042170,Sandalwood Pky W w/of McLaughlin Rd N,43.706412,-79.812489,5350576.5
00042205,Financial Dr s/of Steeles Ave W,43.631666,-79.770001,5350528.53
00042210,Financial Dr n/of Coastline Dr,43.630741,-79.768869,5350528.53
00042220,Financial Dr n/of Seapines St,43.627624,-79.76454,5350528.53
00042230,Financial Dr at Hallstone Rd,43.626228,-79.762725,5350528.53
00042250,Bramalea Rd s/of Hwy 407,43.697274,-79.680466,5350561.0
00042260,Bramalea Rd at 7655 Bramalea Rd,43.696609,-79.679066,5350560.0
00042395,Heart Lake Terminal Route 3/3A/201 Stop,43.728052,-79.797909,5350576.09
00042400,Hurontario St at 11975 Hurontario St,43.733486,-79.824336,5350576.31
00044000,Fernforest Dr opp Hartwell Gate,43.754031,-79.769496,5350576.85
00044002,Fernforest Dr s/of Abitibi Lake Dr,43.757245,-79.775015,5350576.59
00044005,Fernforest Dr n/of Father Tobin Rd,43.756538,-79.773338,5350576.59
00044010,Father Tobin Rd at Fairservice Dr (w/of Bramalea),43.757928,-79.770719,5350576.85
00044020,Father Tobin Rd opp Moira Creek Dr,43.753739,-79.776026,5350576.59
00044030,Father Tobin Rd w/of Fernforest Dr,43.75611,-79.773218,5350576.59
00044033,Fernforest Dr n/of Kerrigan Dr,43.755422,-79.771785,5350576.59
00044040,Fernforest Dr at Hartwell Gate,43.754026,-79.769826,5350576.59
00044045,Fernforest Dr at Octillo Blvd,43.752873,-79.767517,5350576.59
00044047,Bramalea Rd btwn Father Tobin Rd & Dewside Dr,43.75899,-79.764106,5350576.85
00044050,Bramalea Rd at Dewside Dr,43.757426,-79.761985,5350576.85
00044060,Bramalea Rd n/of Sandalwood Pky,43.754291,-79.757862,5350576.85
00044061,Bramalea Rd btwn Dewside Dr & Father Tobin Rd,43.759616,-79.764463,5350576.54
00044065,Bramalea Rd at Father Tobin Rd,43.761031,-79.766403,5350576.54
00044080,Father Tobin Rd at Tundra Swan Rd,43.77227,-79.754562,5350576.88
00044090,Father Tobin Rd at Polar Bear Place,43.773196,-79.753255,5350576.88
00044110,Mountainash Rd at Good Hope Rd,43.774087,-79.749181,5350576.88
00044120,Mountainash Rd s/of Grey Whale Rd,43.773144,-79.746225,5350576.89
00044130,Mountainash Rd at Kamloops Dr,43.771717,-79.742773,5350576.89
00044140,Lexington Dr at Long Meadow Rd - 214,43.774098,-79.700054,5350576.83
00044150,Lexington Rd btwn Long Meadow & Calderstone - 214,43.775364,-79.698163,5350576.83
00044151,Lexington Ave e/of Calderstone Dr,43.775669,-79.698082,5350576.82
00044170,Cottrelle Blvd at Maple Valley St (w/of McVean Dr),43.771797,-79.690439,5350576.83
00044180,Cottrelle Blvd at Calderstone Rd,43.771128,-79.693013,5350576.83
00044190,Cottrelle Blvd at Prince Edward Blvd,43.772277,-79.696166,5350576.83
00044195,Cottrelle Blvd e/of Goreway Dr,43.770335,-79.706357,5350576.57
00044200,Cottrelle Blvd at Valleycreek Dr,43.772081,-79.703738,5350576.57
00044210,Mayfield Rd e/of Airport Rd,43.791487,-79.759413,5350576.75
00044220,The Gore Rd n/of Don Minaker Dr,43.775942,-79.668557,5350576.86
00044237,The Gore Rd s/of Don Minaker Dr,43.772959,-79.664555,5350576.86
00044240,Williams Pky at Pertosa Dr,43.680376,-79.804756,5350576.29
00044243,Williams Pkwy n/of James Potter Rd,43.674836,-79.806586,5350577.01
00044245,Williams Pkwy e/of Valleyway Dr,43.672183,-79.805593,5350577.01
00044250,James Potter Rd w/of Williams Pky W,43.674502,-79.80698,5350577.01
00044260,James Potter Rd e/of Chudleigh Ave,43.674104,-79.809488,5350577.01
00044270,James Potter Rd e/of Georgian Rd,43.673068,-79.81367,5350577.01
00044280,James Potter Rd btwn Georgian Rd & Ashby Field Rd,43.670997,-79.815961,5350577.0
00044290,James Potter e/of Ashby Field Rd,43.669172,-79.818961,5350577.0
00044300,Ashby Field Rd s/of Fandango Dr,43.670886,-79.82021,5350577.0
00044303,Ashby Field Rd s/of Bovaird Dr,43.67283,-79.821931,5350577.0
00044310,Ashby Field Rd n/of Crumlin Cres (S),43.671362,-79.82084,5350577.0
00044315,Ashby Field Rd n/of James Potter Rd,43.669499,-79.819728,5350577.0
00044320,James Potter Rd w/of Alister Dr,43.670273,-79.816349,5350577.0
00044330,James Potter Rd w/of Creditview Dr,43.672336,-79.814074,5350577.0
00044340,James Potter Rd w/of Bonavista Dr,43.6738,-79.810373,5350577.01
00044350,James Potter Rd at Williams Pky E,43.674176,-79.806876,5350577.01
00044355,Williams Pky W n/of James Potter Rd,43.675345,-79.806403,5350577.02
00044360,Williams Pky opp Pertosa Dr,43.679913,-79.804908,5350576.29
00044370,Financial Dr btwn Hallstone & 407 ETR,43.62441,-79.760214,5350528.53
00044410,Castlemore Rd e/of Valleycreek Dr,43.776051,-79.707495,5350576.82
00044420,Castlemore Rd e/of Redwillow Rd,43.778622,-79.704482,5350576.82
00044430,Castlemore Rd w/of McVean Dr,43.781654,-79.700892,5350576.82
00044435,McVean Dr opp Moonland Rd,43.780241,-79.697786,5350576.82
00044440,McVean Dr at Lexington Rd,43.777824,-79.694581,5350576.83
00044445,McVean Dr opp Poppy Hills Rd,43.775919,-79.692052,5350576.83
00044450,McVean Dr s/of Cottrelle Blvd,43.772822,-79.68795,5350576.57
00044455,McVean Dr s/of Moonland Rd,43.780091,-79.697112,5350576.63
00044460,McVean Dr s/of Huntspoint Dr,43.770976,-79.685509,5350576.57
00044470,McVean Dr opp Dunegrass Way,43.769085,-79.683041,5350576.57
00044475,McVean Dr opp Riverstone Dr,43.764967,-79.677443,5350576.57
00044480,Ebenezer Rd e/of McVean Dr,43.76297,-79.673266,5350576.65
00044490,Ebenezer Rd at Don Minaker Dr,43.764565,-79.671439,5350576.65
00044500,Ebenezer Rd at Attmar Dr,43.767229,-79.668523,5350576.65
00044510,Ebenezer Rd at Palleschi Dr,43.77003,-79.665418,5350576.65
00044520,Ebenezer Rd at The Gore Rd,43.771576,-79.663631,5350576.65
00044523,McVean Dr btwn Queen St & Ebenezer Rd,43.762294,-79.673414,5350576.65
00044525,McVean Dr n/of Riverstone Dr,43.765134,-79.67725,5350576.87
00044530,McVean Dr at Dunegrass Way,43.769393,-79.683018,5350576.87
00044535,McVean Dr n/of Islington Dr,43.771756,-79.686121,5350576.87
00044540,McVean Dr n/of Cottrelle Blvd,43.773599,-79.688544,5350576.63
00044545,McVean Dr s/of Poppy Hills,43.775654,-79.691208,5350576.63
00044550,McVean Dr opp Lexington Rd,43.778139,-79.694505,5350576.63
00044570,Castlemore Rd w/of Evergreen Ave,43.778183,-79.705539,5350576.73
00044580,Castlemore Rd e/of Goreway Dr,43.773223,-79.71102,5350576.73
00044755,Heart Lake Rd n/of Bovaird Dr,43.722259,-79.770278,5350576.06
00044765,Heart Lake Rd s/of Brussels Ave,43.734541,-79.77811,5350576.93
00044770,Heart Lake Rd n/of Copperfield Rd,43.731891,-79.774571,5350576.93
00044775,Heart Lake Rd n/of Brussels Ave,43.72977,-79.77169,5350576.93
00044818,Ebenezer Rd e/of The Gore Rd,43.772849,-79.662245,5350576.65
00044820,Ebenezer Rd w/of Nexus Ave,43.774063,-79.660847,5350576.65
00044870,Sunny Meadow Blvd btwn Red River Dr & Shady Oak Ln,43.756436,-79.750448,5350576.45
00044880,Sunny Meadow Blvd at Mint Leaf Blvd,43.756839,-79.752333,5350576.45
00044890,Sunny Meadow Blvd at Feather Reed Way,43.756916,-79.752982,5350576.2
00044900,Sunny Meadow btwn Mint Leaf Blvd & Larkspur Rd,43.756345,-79.75035,5350576.2
00044910,Father Tobin Rd w/of Moldovan Dr,43.769833,-79.757905,5350576.55
00044920,Father Tobin Rd opp Sugarcane Ave,43.767803,-79.759045,5350576.55
00044930,Father Tobin Rd at Sunny Meadow Blvd,43.766141,-79.761383,5350576.55
00044945,Sunny Meadow Blvd n/of Resserville St,43.767622,-79.765286,5350576.54
00044950,Countryside Dr e/of Sunny Meadow Blvd,43.76876,-79.766548,5350576.55
00044960,Countryside Dr at Moldovan Dr,43.771707,-79.76376,5350576.55
00044995,Torbram Rd at Sandalwood Pky E,43.765504,-79.749274,5350576.55
00045020,Mountainash Rd at Klondike Trail,43.773286,-79.746224,5350576.66
00045030,Mountainash Rd opp Good Hope Rd,43.773789,-79.748489,5350576.66
00045035,Mountainash Rd at Father Tobin Rd,43.775118,-79.750289,5350576.66
00045040,Father Tobin Rd at Sled Dog Rd,43.773547,-79.753033,5350576.88
00045050,Father Tobin Rd at Snowshoe Lane,43.77272,-79.75415,5350576.88
00045060,Father Tobin Rd e/of Torbram Rd,43.771274,-79.75619,5350576.88
00045070,Father Tobin Rd w/of Torbram Rd,43.770777,-79.75665,5350576.55
00045080,Father Tobin Rd e/of Tennant Dr,43.768523,-79.758173,5350576.55
00045090,Father Tobin Rd opp Pape Dr (Hewson P.S.),43.766849,-79.760151,5350576.55
00045110,Father Tobin Rd at Wall St,43.763925,-79.763943,5350576.54
00045120,Father Tobin Rd at Bramalea Rd,43.761741,-79.766339,5350576.54
00045130,Father Tobin Rd at Helman Rd,43.759881,-79.768364,5350576.85
00045140,Father Tobin Rd at Fernforest Dr,43.756554,-79.77283,5350576.85
00045150,Father Tobin Rd w/of Moira Creek Dr,43.753655,-79.776293,5350576.59
00045160,Father Tobin Rd e/of Dixie Rd,43.75226,-79.778025,5350576.59
00045170,Father Tobin Rd w/of Bramalea Rd,43.76076,-79.767141,5350576.85
00045175,Father Tobin Rd e/of Bramalea Rd,43.761641,-79.766234,5350576.54
00045180,Father Tobin Rd at Severin St,43.763657,-79.764039,5350576.54
00045185,Father Tobin Rd e/of Sunny Meadow Blvd,43.76606,-79.761252,5350576.55
00045186,Dixie Rd n/of Naperton Dr,43.750555,-79.776515,5350576.92
00045190,Dixie Rd opp Octillo Blvd,43.748248,-79.77336,5350576.92
00045200,Charolais Blvd at Chinguacousy Rd,43.651066,-79.759552,5350572.07
00045210,James Potter Rd at Solidarity Crt,43.648233,-79.761339,5350576.9
00045212,James Potter Rd opp Pefferlaw Cir,43.647028,-79.760793,5350576.9
00045220,James Potter Rd at Krakow St,43.645443,-79.759421,5350576.9
00045258,James Potter Rd at Charolais Blvd,43.648724,-79.761497,5350576.9
00045260,James Potter Rd btwn Pefferlaw Cir and Oblate Cres,43.647107,-79.760531,5350576.9
00045262,James Potter Rd at Arizona Dr,43.64554,-79.759135,5350576.9
00045270,Charolais Blvd w/of Chinguacousy Rd,43.650198,-79.760103,5350576.9
00045280,Castlemore Rd at Goreway Dr,43.772309,-79.711425,5350576.78
00045290,Fernforest Dr s/of Father Tobin Rd,43.756256,-79.772731,5350576.85
00045505,Downtown Terminal Route 1/1A EB,43.686739,-79.763001,5350574.0
00045510,Downtown Terminal Route 1/1A WB /561 Stop,43.686892,-79.763022,5350574.0
00045520,Downtown Terminal Route 52 Stop,43.687064,-79.762237,5350574.0
00045528,Bramalea Terminal Route 1/1A WB - Departure,43.719117,-79.720436,5350563.01
00045533,Bramalea Terminal Route 1/1A EB - Departure,43.718761,-79.720816,5350563.01
00045538,Bramalea Terminal Route 18 NB Stop,43.718914,-79.720875,5350563.01
00045543,Bramalea Terminal Route 18 SB Stop,43.719021,-79.720749,5350563.01
00045545,Bramalea Terminal Route 15/15A SB Stop,43.719136,-79.72061,5350563.01
00045550,Bramalea Terminal Route 15/15A NB Stop,43.719243,-79.720496,5350563.01
00045555,Bramalea Terminal Route 12 / 205 / 217,43.718969,-79.720154,5350563.01
00045560,Bramalea Terminal Route 9 WB/19/208 Stop,43.71888,-79.720255,5350563.01
00045565,Bramalea Terminal Route 9 EB/17/207 Stop,43.718792,-79.720369,5350563.01
00045570,Bramalea Terminal Route 10/16 Stop,43.718694,-79.720483,5350563.01
00045575,Bramalea Terminal Route 115 Stop,43.718713,-79.720569,5350563.01
00045580,Bramalea Terminal Route 13/20 Stop,43.71898,-79.720278,5350563.01
00045585,Bramalea Terminal Route 8 Stop,43.71906,-79.720189,5350563.01
00045590,Ganton Heights e/of Bevington Rd,43.676741,-79.825811,5350577.09
00045595,Ganton Heights e/of Stemford Rd,43.676418,-79.827462,5350577.09
00046000,Torbram Rd s/of Countryside Dr,43.77387,-79.760568,5350576.55
00046010,Torbram Rd s/of Father Tobin Rd,43.770608,-79.756195,5350576.55
00046020,Torbram Rd at Australia Dr,43.767718,-79.752304,5350576.55
00046050,Bramalea Rd s/of Father Tobin Rd,43.760791,-79.766556,5350576.85
00047000,Cottrelle Blvd e/of Redwillow Rd,43.773047,-79.69945,5350576.57
00047010,Cottrelle Blvd s/of Prince Edward Blvd,43.772034,-79.696232,5350576.57
00047020,Cottrelle Blvd w/of Huntspoint Dr,43.771093,-79.694264,5350576.57
00047021,Cottrelle Blvd e/of Huntspoint Dr - 214 ONLY,43.77095,-79.692432,5350576.57
00047030,Cottrelle Blvd w/of Maple Valley St,43.771383,-79.690704,5350576.57
00047040,Cottrelle Blvd at McVean Dr,43.772642,-79.688776,5350576.57
00047051,Cottrelle Blvd w/of Midsummer Dr,43.774471,-79.685409,5350576.87
00047060,Cottrelle Blvd w/of Westbrook Ave,43.774898,-79.680648,5350576.87
00047070,Cottrelle Blvd e/of The Gore Rd,43.780295,-79.673117,5350576.62
00047080,Cottrelle Blvd w/of Thorndale Rd,43.781683,-79.671489,5350576.62
00047090,Cottrelle Blvd e/of Thorndale Rd,43.783436,-79.667984,5350576.62
00047100,Cottrelle Blvd at Via Romano Way,43.783678,-79.663962,5350576.62
00047110,Clarkway Dr btwn Goreridge Cres & Brunetta Way,43.781594,-79.661936,5350576.62
00047120,Via Romano Way btwn Brunetta Way & Modesto Cr,43.779316,-79.659527,5350576.62
00047130,Ebenezer Rd at Maybrook Way,43.776725,-79.657823,5350576.65
00047140,Hwy 50 s/of Ebenezer Rd,43.777909,-79.654921,5350576.65
00047143,Highway 50 at 8950 Highway 50,43.776167,-79.653932,5350576.65
00047145,Highway 50 s/of Fogal Rd,43.773076,-79.652218,5350576.65
00047150,Cottrelle Blvd w/of Clarkway Dr,43.783889,-79.664269,5350576.97
00047160,Cottrelle Blvd w/of Clarkway Dr,43.783534,-79.668767,5350576.97
00047170,Cottrelle Blvd at Thorndale Rd,43.782408,-79.67115,5350576.97
00047180,Cottrelle Blvd at The Gore Rd,43.77969,-79.674247,5350576.63
00047190,Cottrelle Blvd w/of Skyvalley Dr,43.77651,-79.677917,5350576.63
00047200,Cottrelle Blvd e/of Midsummer Dr,43.775129,-79.680766,5350576.63
00047210,Cottrelle Blvd at Midsummer Dr,43.774652,-79.685703,5350576.63
00047220,Cottrelle Blvd e/of McVean Dr,43.773533,-79.688029,5350576.63
00047500,Clarkway Dr at 3918 Cottrelle Blvd,43.784561,-79.663427,5350576.96
00047510,Clarkway Dr n/of Passfield Tr,43.785638,-79.663574,5350576.96
00047520,Clarkway Dr s/of Ugrasen St,43.787899,-79.663793,5350576.96
00047530,Clarkway Dr s/of Bellchase Tr,43.790824,-79.6647,5350576.96
00047535,Clarkway Dr n/of Cottrelle Blvd,43.78427,-79.663661,5350576.97
00047536,Clarkway Dr n/of Clearfield Dr,43.786247,-79.663945,5350576.96
00047537,Clarkway Dr n/of Oklahoma Dr,43.788445,-79.664152,5350576.96
00047538,Clarkway Dr n/of Oklahoma Dr,43.790104,-79.664536,5350576.96
00047553,Castlemore Rd w/of Drummondville Dr,43.79866,-79.681782,5350576.95
00048000,Don Minaker Dr opp Imperial Lakes Dr,43.765363,-79.671861,5350576.86
00048010,Don Minaker Dr btwn Vespahills & Desertrose,43.766233,-79.673029,5350576.86
00048020,Don Minaker Dr w/of Vissini Way,43.768037,-79.674952,5350576.86
00048030,Don Minaker Dr e/of Eaglesprings Cres,43.770897,-79.673803,5350576.86
00048040,Don Minaker Dr at Westbrook Dr,43.772701,-79.67173,5350576.86
00049000,Williams Pky e/of Personna Cir,43.66911,-79.806256,5350577.01
00049010,Williams Pky e/of Elbern Markell Dr,43.66372,-79.811746,5350577.0
00049020,Royalwest Dr s/of Williams Pkwy W,43.659138,-79.812848,5350577.04
00049030,Royalwest Dr s/of Beachville Cir,43.656487,-79.810636,5350577.04
00049040,Mississauga Rd n/of Beacon Hill Dr,43.654356,-79.812149,5350577.04
00049050,Mississauga Rd at Credit Ridge Commons,43.655836,-79.814293,5350577.04
00049070,Williams Pky w/of Elbern Markell Dr,43.662959,-79.812157,5350577.04
00049080,Williams Pky opp Brentwick Dr,43.665113,-79.809796,5350577.04
00049090,Williams Pky e/of Abbotsbury Dr,43.669016,-79.80591,5350577.03
00049100,Williams Pky at Valleyway Dr,43.67133,-79.805046,5350577.03
00050100,Downtown Terminal Zum Queen Stop,43.68687,-79.762467,5350574.0
00050102,Centre - Zum Queen Station Stop EB,43.690953,-79.754373,5350571.01
00050104,Kennedy - Zum Queen Station Stop EB,43.695967,-79.748863,5350570.01
00050106,Rutherford - Zum Queen Station Stop EB,43.701453,-79.742624,5350570.01
00050108,West - Zum Queen Station Stop EB,43.709439,-79.733718,5350562.12
00050110,Dixie - Zum Queen Station Stop EB,43.715382,-79.727162,5350563.01
00050112,Bramalea - Zum Queen Station Stop EB,43.724972,-79.716576,5350564.02
00050114,Finchgate - Zum Queen Station Stop EB,43.728553,-79.712565,5350564.02
00050116,Torbram - Zum Queen Station Stop EB,43.734538,-79.70589,5350576.79
00050118,Gateway - Zum Queen Station Stop EB,43.73838,-79.701478,5350576.79
00050120,Airport Road - Zum Queen Station Stop EB,43.743893,-79.695058,5350576.78
00050122,Goreway - Zum Queen Station Stop EB,43.753586,-79.683614,5350576.78
00050124,McVean - Zum Queen Station Stop EB,43.761826,-79.672266,5350576.78
00050126,The Gore Road - Zum Queen Station Stop EB,43.765937,-79.654724,5350576.78
00050150,Highway 50 - Zum Queen Station Stop WB,43.76712,-79.649676,5350576.65
00050152,The Gore Road - Zum Queen Station Stop WB,43.765988,-79.656708,5350576.65
00050154,McVean - Zum Queen Station Stop WB,43.761528,-79.673772,5350576.57
00050156,Goreway - Zum Queen Station Stop WB,43.752459,-79.685609,5350576.78
00050158,Airport Road - Zum Queen Station Stop WB,43.742944,-79.696843,5350576.79
00050160,Chrysler - Zum Queen Station Stop WB,43.738194,-79.702309,5350576.79
00050162,Torbram - Zum Queen Station Stop WB,43.733374,-79.707822,5350562.09
00050164,Glenvale - Zum Queen Station Stop WB,43.727724,-79.714151,5350562.09
00050166,Bramalea - Zum Queen Station Stop WB,43.723989,-79.718285,5350562.05
00050168,Dixie - Zum Queen Station Stop WB,43.714308,-79.728958,5350562.02
00050170,Laurelcrest - Zum Queen Station Stop WB,43.70858,-79.735318,5350562.02
00050172,Rutherford - Zum Queen Station Stop WB,43.701541,-79.743109,5350575.04
00050174,Kennedy - Zum Queen Station Stop WB,43.695367,-79.750006,5350575.02
00050176,Centre - Zum Queen Station Stop WB,43.690964,-79.754764,5350575.02
00050193,Bramalea Terminal- Zum Queen 501 WB-Departure,43.719019,-79.720563,5350563.01
00050198,Bramalea Terminal- Zum Queen 501 EB-Departure,43.718887,-79.720727,5350563.01
00051000,McLaughlin Rd n/of Gurdwara Gate,43.648294,-79.732347,5350528.22
00051020,McLaughlin Rd n/of Ray Lawson Blvd,43.651549,-79.736725,5350528.21
00051100,Kennedy - Zum Steeles Station Stop EB,43.676199,-79.721745,5350570.01
00051101,Kennedy - Zum Steeles Station Stop WB,43.675124,-79.723551,5350570.01
00051102,First Gulf - Zum Steeles Station Stop EB,43.680964,-79.716446,5350570.01
00051103,Rutherford - Zum Steeles Station Stop WB,43.680313,-79.717849,5350570.01
00051104,Tomken - Zum Steeles Station Stop EB,43.690866,-79.705683,5350562.13
00051105,West Drive - Zum Steeles Station Stop WB,43.690065,-79.707133,5350562.13
00051106,Dixie - Zum Steeles Station Stop EB,43.695813,-79.700153,5350561.0
00051107,Dixie - Zum Steeles Station Stop WB,43.694648,-79.702146,5350562.13
00051110,Torbram - Zum Steeles Station Stop EB,43.714725,-79.678979,5350576.79
00051111,Torbram - Zum Steeles Station Stop WB,43.714029,-79.680455,5350560.0
00051112,Airport Road - Zum Steeles Station Stop EB,43.724305,-79.668113,5350576.78
00051113,Airport Road - Zum Steeles Station Stop WB,43.723292,-79.669948,5350576.79
00051114,Goreway - Zum Steeles Station Stop EB,43.733614,-79.657437,5350576.78
00051115,Goreway - Zum Steeles Station Stop WB,43.732831,-79.658904,5350576.78
00051116,Finch - Zum Steeles Station Stop EB,43.742042,-79.646615,5350576.78
00051117,Finch - Zum Steeles Station Stop WB,43.742528,-79.647898,5350576.78
00055560,Bramalea Rd at Smart Centres,43.770778,-79.779661,5350576.54
00055565,EB Smart Centres - Walmart Plaza,43.771727,-79.778715,5350576.54
00055575,Bramalea Rd n/of Countryside Dr,43.764443,-79.77151,5350576.84
00090100,Dixie Rd at Countryside Dr,43.754055,-79.781221,5350576.92
00090300,Kennedy Rd N at Mayfield Rd - School Only,43.743742,-79.813952,5350576.04
00090410,Inder Heights Dr at Eddystone Cr - 201 School Only,43.737321,-79.812422,5350576.09
00090415,Inder Heights Dr at Ravinder Crt - 201 School Only,43.738729,-79.815927,5350576.09
00090420,Inder Heights Dr opp Mohan Crt - 201 School Only,43.736503,-79.813794,5350576.09
00090425,Inder Heights Dr at Redtail Crt - 201 School Only,43.737387,-79.815254,5350576.09
00090500,Braidwood Lake Rd at Ridelle Crt - School Only,43.726795,-79.811872,5350576.33
00090600,Cresthaven Rd w/of Buffridge Trail - 202 School,43.726807,-79.818851,5350576.76
00090601,Van Kirk Dr n/of Wanless Dr,43.718498,-79.821973,5350576.77
00090610,Van Kirk Dr at Bramtrail Gate,43.720774,-79.824473,5350576.77
00090620,Van Kirk Dr at Game Creek Cres,43.721983,-79.826461,5350576.77
00090621,Van Kirk Dr at Perkins Dr,43.722305,-79.827112,5350576.77
00090630,Van Kirk Dr n/of Begonia Cres,43.723972,-79.829138,5350576.77
00090641,Van Kirk Dr s/of Mayfield Rd,43.725903,-79.832397,5350576.77
00090645,Van Kirk Dr at Mayfield Rd,43.726027,-79.832335,5350576.77
00090650,Cresthaven Rd at Hurontario St,43.727896,-79.817431,5350576.76
00090652,Cresthaven  Rd at Torada Crt,43.725283,-79.821568,5350576.76
00090660,Tournament Dr s/of Cresthaven Rd,43.725489,-79.818873,5350576.76
00090670,Tournament Dr at Masters Green Cres,43.724453,-79.817091,5350576.76
00090690,Christie Dr e/of Archer Crt - School Only,43.740077,-79.802649,5350576.04
00090695,Christie Dr at Iris Cres - School Only,43.739515,-79.803061,5350576.04
00090700,Christie Dr at Hacienda Crt - School Only,43.738337,-79.804649,5350576.04
00090800,Cresthaven Rd at Banington Cres,43.726092,-79.823351,5350576.76
00090801,Cresthaven Rd at Mayfield Rd - School Special,43.729942,-79.828034,5350576.76
00090900,Windmill Blvd at Steeles Ave W,43.65353,-79.746588,5350528.31
00090950,Windmill Blvd n/of Ortana Dr,43.652748,-79.745595,5350528.31
00091000,Ray Lawson Blvd w/of McLaughlin Rd S,43.650766,-79.736459,5350528.31
00091010,Ray Lawson Blvd opp Acadian Heights,43.648042,-79.737545,5350528.5
00091050,Ray Lawson Blvd w/of Woodsend Run,43.645938,-79.740017,5350528.51
00091100,Queen St W w/of Drinkwater Rd,43.670077,-79.777261,5350572.09
00091350,Queen St W e/of Major William Sharpe,43.670675,-79.777034,5350573.05
00091360,James Potter - Zum Queen West Station Stop WB,43.662863,-79.785716,5350577.03
00091365,Queen St W opp Angelgate Rd,43.660969,-79.787841,5350577.03
00091370,Creditview - Zum Queen West Station Stop WB,43.656476,-79.792832,5350577.04
00091375,Queen St opp Links Lane,43.654256,-79.79526,5350577.04
00091380,Queen St w/of Elbern Markell Dr,43.651734,-79.797903,5350577.04
00091385,Royal West Dr s/of Airlie Crt,43.650163,-79.800601,5350577.04
00091600,Christie Dr e/of Kennedy Rd,43.737742,-79.805287,5350576.04
00091610,Kenpark Ave opp Starling Crt,43.74346,-79.811299,5350576.04
00091611,Kenpark Ave w/of Kingfisher Crt - 202 School Only,43.744392,-79.811194,5350576.04
00091650,Royal West Dr s/of Adamsville Rd,43.651901,-79.805589,5350577.04
00091655,Royal West Dr s/of Beacon Hill Dr,43.655031,-79.809748,5350577.04
00091660,Royal West Dr btwn Beacon Hill Dr & Williams Pkwy,43.658122,-79.811042,5350577.04
00091670,Royal West Dr btwn Balin Cres & Balin Cres,43.654522,-79.809401,5350577.04
00091675,Royal West Dr at Lunogo Park,43.651676,-79.805382,5350577.04
00091680,Royal West Dr n/of Queen St W,43.650054,-79.800794,5350577.04
00091690,Queen St e/of Royal West Dr,43.650553,-79.798814,5350576.91
00092000,Chinguacousy - Zum Queen West Station Stop WB,43.666174,-79.782134,5350577.02
00092300,Royal West Dr at Williams Pkwy W,43.659993,-79.814977,5350577.04
00092465,McLaughlin - Zum Queen West Station Stop EB,43.675526,-79.771063,5350572.09
00092470,Queen St W w/of Academic Dr,43.672278,-79.77472,5350572.09
00092475,Queen St opp Elbern Markell Dr,43.652312,-79.796936,5350576.91
00092480,Queen St W w/of Links Lane,43.653692,-79.795412,5350576.91
00092485,Creditview - Zum Queen West Station Stop EB,43.656482,-79.792445,5350576.91
00092490,Queen St W w/of Angelgate Rd,43.660227,-79.788276,5350577.06
00092495,James Potter - Zum Queen West Station Stop EB,43.662941,-79.785277,5350577.06
00093000,Financial Dr n/of Steeles Ave,43.632796,-79.771196,5350576.91
00093005,Financial Dr n/of Antamina St,43.633598,-79.773346,5350576.91
00093045,Financial Dr s/of Grouse Lane,43.623834,-79.759124,5350528.52
00093050,Financial Dr s/of Hallstone Rd,43.625894,-79.761917,5350528.52
00093055,Financial Dr s/of Miner St,43.627477,-79.764052,5350528.53
00093060,Financial Dr s/of Cooperage St,43.630655,-79.768446,5350528.53
00093505,Financial Dr n/of Plentywood Dr,43.634791,-79.77854,5350576.91
00093510,Financial Dr n/of Shediac Rd,43.633641,-79.776999,5350576.91
00093515,Financial Dr n/of Olivia Marie Rd,43.633418,-79.775097,5350576.91
00093520,Financial Dr opp Antamina St,43.633367,-79.773016,5350576.91
00093530,Hereford St s/of Steeles Ave,43.621436,-79.780228,5350528.53
00093535,Edgeware Rd e/of Hereford St,43.618921,-79.775266,5350528.53
00093540,Edgeware Rd w/of Ironbridge Rd,43.621025,-79.772927,5350528.53
00093545,Mississauga Rd n/of Hereford St,43.621373,-79.768252,5350528.53
00093800,Castlemore Rd w/of Valleycreek Dr,43.773433,-79.710232,5350576.82
00093805,McVean Dr at 9980 McVean Dr,43.78185,-79.700002,5350576.82
00093810,Clarkway Dr s/of Castlemore Rd,43.800545,-79.678234,5350576.94
00093815,Clarkway Dr n/of Almond St,43.799475,-79.676745,5350576.94
00093820,Clarkway Dr n/of Riseborough Dr,43.797905,-79.674622,5350576.94
00093825,Clarkway Dr n/of Castle Oaks Crossing,43.795666,-79.671598,5350576.94
00093830,Clarkway Dr n/of Daden Oaks Dr,43.79401,-79.669349,5350576.96
00093835,Clarkway Dr n/of Valerian St,43.792615,-79.66742,5350576.96
00093840,Clarkway Dr n/of Bellchase Trail,43.791228,-79.665579,5350576.96
00093845,Clarkway Dr s/of Bluffmeadow St,43.792323,-79.666605,5350576.96
00093850,Clarkway Dr s/of Singletree Rd,43.79376,-79.668555,5350576.96
00093855,Clarkway Dr s/of Castle Oaks Crossing,43.79536,-79.670717,5350576.96
00093860,Clarkway Dr s/of Altura Way,43.79762,-79.673787,5350576.94
00093865,Clarkway Dr s/of Caliper Rd,43.799186,-79.675894,5350576.94
00093870,Castlemore Rd w/of Clarkway Dr,43.800853,-79.679373,5350576.94
00093875,Castlemore Rd opp Drummondville Dr,43.799418,-79.681525,5350576.73
00093880,Castlemore Rd opp Gardenbrooke Trail,43.797221,-79.684074,5350576.73
00093885,Castlemore Rd opp Bloom Dr,43.794835,-79.686848,5350576.73
00093890,Castlemore Rd at The Gore Rd,43.792393,-79.689704,5350576.73
00093950,Humberwest Pkwy s/of Exchange Dr,43.754603,-79.687557,5350576.78
00094000,Chinguacousy Rd s/of Earlsbridge Blvd,43.701262,-79.828437,5350576.5
00094005,Chinguacousy Rd s/of Sugarhill Dr,43.70374,-79.831826,5350576.49
00094010,Wanless Dr w/of Chinguacousy Rd,43.705846,-79.835826,5350576.98
00094015,Wanless Dr e/of Brisdale Dr - 4A,43.702477,-79.839452,5350576.98
00094025,Chinguacousy Rd s/of Wanless Dr,43.705639,-79.834887,5350576.53
00094030,Chinguacousy Rd n/of Sugarhill Dr,43.703918,-79.832551,5350576.53
00094035,James Potter Rd s/of Teal Crest Cir,43.664617,-79.78826,5350577.03
00094040,James Potter Rd s/of Queen St W,43.662662,-79.784641,5350577.06
00094045,James Potter Rd s/of Beechmont Dr,43.659229,-79.782737,5350577.06
00094050,James Potter Rd s/of Bonnie Braes Dr,43.654822,-79.779453,5350577.06
00094055,James Potter Rd s/of Arrowpoint Dr,43.65366,-79.775938,5350577.06
00094060,James Potter Rd s/of Leadership Dr,43.653511,-79.772862,5350577.06
00094065,James Potter Rd n/of Leadership Dr,43.653611,-79.773815,5350577.05
00094070,James Potter btwn Bittersweet Rd and Ingleside Rd,43.65418,-79.776838,5350577.05
00094075,James Potter Rd n/of Bonnie Braes Dr,43.655421,-79.780399,5350577.05
00094080,James Potter Rd n/of Timbercrove Rd,43.660107,-79.782506,5350577.05
00094085,James Potter Rd n/of Queen St W,43.663823,-79.785616,5350577.02
00094090,James Potter Rd s/of Daviselm Dr,43.664863,-79.788876,5350577.02
00094100,Williams Pkwy e/of Brentwick Dr,43.665903,-79.809358,5350577.0
00094105,McLaughlin Rd at 9720 McLaughlin Rd,43.690078,-79.789733,5350573.1
00094115,Dusk Dr e/of Hatton Crt,43.655581,-79.768636,5350577.05
14090101,Castle Oaks Crossing e/of Long Branch Trail,43.793881,-79.673564,5350576.94
14090102,Castle Oaks Crossing opp Bellchase Trail,43.792388,-79.676098,5350576.95
14090103,Castle Oaks Crossing e/of Gardenbrook Trail,43.791386,-79.678553,5350576.95
14090104,Westbrook Ave s/of Cottrelle Blvd,43.776697,-79.677051,5350576.86
14090105,Skyvalley Dr s/of Heathbrook Ave,43.777835,-79.67878,5350576.63
14090107,Steeles Ave w/of Paget Rd,43.734825,-79.656024,5350576.78
14090108,Paget Rd n/of Kenview Blvd,43.73405,-79.652143,5350576.78
14090109,Production Rd at Production Rd cul-de-sac,43.718303,-79.668275,5350576.79
14090110,Production Rd w/of Airport Rd,43.720318,-79.665547,5350576.79
14090111,Driver Rd w/of Pedigree Crt,43.72265,-79.662747,5350576.78
14090112,Driver Rd at 30 Driver Rd,43.723563,-79.661999,5350576.78
14090113,Driver Rd e/of Airport Rd,43.721104,-79.664862,5350576.78
14090114,Cherrytree Dr n/of Rembrandt Crt (N),43.654093,-79.726714,5350528.22
14090115,Cherrytree Dr n/of Waterloo Crt,43.653071,-79.724007,5350528.22
14090116,Cherrytree Dr n/of Sparrow Crt,43.652094,-79.721758,5350528.22
14090117,Cherrytree Dr s/of Redwood Place,43.654881,-79.720395,5350528.22
14090118,Cherrytree Dr n/of 20 Cherrytree Dr,43.655944,-79.723294,5350528.22
14090119,Heart Lake Terminal Route 23 EB Stop,43.727993,-79.798215,5350576.09
14090120,Mount Pleasant Village - Route 26 Stop,43.675226,-79.823156,5350577.09
14090125,Robert Parkinson Dr n/of Sandalwood Pkwy,43.687113,-79.838418,5350576.98
14090126,Robert Parkinson Dr s/of Tribune Dr,43.689276,-79.840596,5350576.98
14090129,Castlemore Rd e/of Humberwest Pkwy,43.767077,-79.718073,5350576.69
14090130,Humberwest Pkwy s/of Fairlawn Blvd,43.769799,-79.725791,5350576.69
14090131,Humberwest Pkwy s/of Crystal Hill Dr,43.768584,-79.721308,5350576.69
14090132,Mount Pleasant GO Station - 5/5A/505 Zum Bovaird,43.674849,-79.822789,5350577.0
14090133,McLaughlin- Zum Bovaird Station Stop WB,43.695746,-79.798173,5350576.43
14090134,Heart Lake - Zum Bovaird Station Stop WB,43.721291,-79.770466,5350576.06
14090135,Trinity Common Terminal-5/5A EB/ 505/505A EB Stop,43.730758,-79.763801,5350576.93
14090136,Trinity Common Terminal - 5/5A WB/ 505 WB/17 Stop,43.730653,-79.764333,5350576.93
14090137,Dixie - Zum Bovaird Station Stop EB,43.735252,-79.753906,5350562.03
14090138,Dixie - Zum Bovaird Station Stop WB,43.734315,-79.755618,5350576.93
14090139,Bramalea - Zum Bovaird Station Stop EB,43.743875,-79.744408,5350562.03
14102702,James Potter Rd n/of Dusk Dr,43.653539,-79.770182,5350577.06
15010501,Heart Lake Rd at 10111 Heart Lake Rd (Lowe's),43.724183,-79.771506,5350576.06
15010502,Ray Lawson Blvd w/of Timberlane Dr,43.653034,-79.733113,5350528.22
15010503,Royal West Dr s/of Williams Pkwy W,43.659347,-79.812969,5350577.04
15021601,Steeles Ave e/of Resolution Dr,43.67864,-79.719094,5350570.01
15033001,Sheridan College Term - 3/3A/4/4A/11/51/511/104 WB,43.655817,-79.741824,5350528.21
15033002,Sheridan College Terminal - 11/51/511/511C EB,43.656078,-79.741521,5350528.21
15033003,Malta - Zum Steeles Station Stop EB,43.66127,-79.738079,5350528.21
15033004,Chinguacousy - Zum Steeles Station Stop WB,43.646368,-79.755308,5350576.9
15033005,Financial - Zum Steeles Station Stop EB,43.632914,-79.769518,5350528.53
15033006,Hereford - Zum Steeles Station Stop EB,43.622682,-79.7808,5350528.53
15033007,Rivermont - Zum Steeles Station Stop WB,43.622035,-79.782019,5350576.91
15033008,Gore Meadows CC - Route 50A/35/36 NB Stop,43.793338,-79.69607,5350576.73
15051801,Heart Lake Rd s/of Sprucewood Rd,43.727923,-79.771143,5350576.06
15051802,Bramalea Rd s/of Inspire Blvd,43.769536,-79.777967,5350576.54
15051804,The Gore Rd n/of Castlemore Rd,43.791967,-79.690244,5350576.73
15051805,Castlemore Rd e/of The Gore Rd,43.792238,-79.68928,5350576.95
15051806,Creditview Rd s/of Aylesbury Rd,43.683911,-79.82925,5350576.99
15051807,Queen St w/of Chinguacousy Rd,43.665332,-79.782636,5350577.05
15051808,Wanless Dr e/of Creditview Rd - 4A,43.69681,-79.845586,5350576.52
15051809,Creditview Rd s/of Wanless Dr,43.695991,-79.845492,5350576.98
15051810,Castlemore Rd e/of Honeyview Trail,43.7839,-79.698403,5350576.63
15062901,Castlemore Rd w/of Julian Dr,43.788377,-79.693681,5350576.63
15090504,Dixie Rd s/of Dolbyhill Dr,43.756319,-79.783867,5350576.84
15090700,Don Minaker Dr n/of Ebenezer Rd,43.764994,-79.671601,5350576.87
15090701,Cherrycrest Dr n/of Queen St,43.763462,-79.669837,5350576.65
15090702,Panahill Dr at St Grace Ct,43.78229,-79.678297,5350576.63
15090703,Gardenbrooke Tr w/of Freedom Oaks Tr,43.783887,-79.676564,5350576.97
15090704,Gardenbrooke Tr w/of Thorndale Rd,43.785024,-79.675238,5350576.97
15090705,Gardenbrooke Tr opp Toddville Rd,43.787666,-79.674577,5350576.97
15090706,Gardenbrooke Tr opp Penelope St,43.788771,-79.675709,5350576.97
15090707,Gardenbrooke Tr opp Mulgrave St,43.789948,-79.67688,5350576.97
15090708,Gardenbrooke Tr n/of Castle Oaks Crossing,43.791393,-79.678841,5350576.95
15090709,Gardenbrooke Tr opp Academy Dr,43.794338,-79.681652,5350576.95
15090710,Gardenbrooke Tr opp Snowpass St,43.795905,-79.682734,5350576.95
15090711,Mount Pleasant GO Station - Route 1 / 561 Stop,43.674774,-79.822827,5350577.0
15090712,James Potter Rd n/of Fahey Dr,43.651977,-79.767236,5350576.9
15090713,James Potter Rd opp Young Dr,43.650003,-79.763774,5350576.9
15090714,Steeles Ave w/of Mavis Rd,43.646217,-79.75483,5350528.52
15090715,Mavis Rd s/of Ray Lawson Blvd,43.641652,-79.746422,5350528.52
15090724,Mavis Rd at Ray Lawson Blvd,43.641985,-79.746461,5350528.51
15090725,Mavis Rd opp Clementine Dr,43.643436,-79.749552,5350528.5
15090726,James Potter Rd s/of Young Dr,43.650169,-79.763621,5350576.9
15090727,James Potter Rd opp Fahey Dr,43.651709,-79.766599,5350576.9
15090728,James Potter Rd s/of Dusk Dr,43.653405,-79.768851,5350577.05
15090729,Spar Dr s/of Williams Pkwy,43.754006,-79.705231,5350576.78
15090730,Spar Dr n/of Ward Rd,43.752522,-79.702982,5350576.78
15090731,Ward Rd at 73 Ward Rd,43.755892,-79.698537,5350576.78
15090732,Edvac Dr n/of Williams Pkwy,43.761162,-79.701432,5350576.78
15090733,Edvac Dr at 13 Edvac Dr,43.76218,-79.704627,5350576.78
15090734,Automatic Rd w/of Edvac Dr,43.762167,-79.707079,5350576.78
15090735,Automatic Rd at 38 Automatic Rd,43.760392,-79.708991,5350576.78
15090736,Automatic Rd at 26 Automatic Rd,43.75882,-79.71072,5350576.78
15090737,Automatic Rd at 16 Automatic Rd,43.756928,-79.71075,5350576.78
15090738,Automatic Rd at 6 Automatic Rd,43.755556,-79.708895,5350576.78
15090743,Ward Rd e/of Spar Dr,43.753452,-79.701361,5350576.78
15090745,Fernforest Dr s/of Sahara Trail,43.751122,-79.764901,5350576.85
15090746,Fernforest Dr n/of Dewside Dr,43.752754,-79.767142,5350576.85
15090750,Countryside Dr e/of Blackstone River Dr,43.75681,-79.779258,5350576.84
15090756,Ganton Heights e/of Creditview Rd,43.676196,-79.828631,5350577.09
15090757,Veterans Dr s/of Aylesbury Dr,43.676953,-79.833812,5350576.99
15090758,Veterans Dr opp Tysonville Cir,43.679124,-79.838247,5350576.99
15090759,Veterans Dr n/of Battalion Rd,43.681233,-79.841322,5350576.99
15090760,Robert Parkinson Dr n/of Buick Blvd,43.69105,-79.8429,5350576.98
15090761,Robert Parkinson Dr s/of Bannister Cres,43.691945,-79.844451,5350576.98
15090762,Robert Parkinson Dr s/of Polstar Rd,43.693667,-79.846417,5350576.98
15090763,Robert Parkinson Dr s/of Wanless Dr,43.694583,-79.847776,5350576.98
15090764,Robert Parkinson Dr s/of Remembrance Rd,43.69635,-79.850534,5350576.98
15090767,Robert Parkinson Dr s/of Eckford Lane,43.693392,-79.846213,5350576.98
15090768,Robert Parkinson Dr n/of Allium Rd,43.691954,-79.844697,5350576.98
15090769,Robert Parkinson Dr at Buick Blvd,43.690919,-79.842967,5350576.98
15090770,Robert Parkinson Dr n/of Giltspur Rd,43.689496,-79.840964,5350576.98
15090771,Robert Parkinson Dr n/of Killick Rd,43.688088,-79.839931,5350576.98
15090773,Veterans Dr s/of Dufay Rd,43.680681,-79.840988,5350576.99
15090774,Veterans Dr s/of Tysonville Cir,43.67889,-79.837936,5350576.99
15090775,Veterans Dr n/of Dublin Rd,43.677041,-79.834295,5350576.99
15090776,Ganton Heights w/of Butterworth Rd,43.676098,-79.827991,5350577.09
15090777,Creditview Rd opp Aylesbury Dr,43.684168,-79.82918,5350576.81
15090778,Goreway Dr n/of Jacksonville Dr,43.788026,-79.731857,5350576.47
15090780,Bloomsbury Ave s/of Jacksonville Dr,43.785847,-79.733435,5350576.47
15090804,Williams - Zum Queen West Station Stop SB,43.658335,-79.818246,5350576.91
15090805,Mississauga Rd opp Credit Ridge Commons,43.655933,-79.814968,5350576.91
15090806,Mississauga Rd s/of Settlers Field Rd,43.653649,-79.81179,5350576.91
15090807,Mississauga Rd s/of Ostrander Blvd,43.650391,-79.807309,5350576.91
15090808,Mississauga Rd s/of Queen St,43.64715,-79.802417,5350576.91
15090809,Mississauga Rd n/of Embleton Rd,43.644594,-79.799482,5350576.91
15090810,Mississauga Rd n/of Lionhead Golf Club Rd,43.637859,-79.790439,5350576.91
15090811,Mississauga Rd s/of Olivia Marie Rd,43.629107,-79.778451,5350576.91
15090816,Mississauga Rd s/of Hallstone Rd,43.621064,-79.766966,5350528.53
15090817,Mississauga Rd opp Edgeware Rd,43.62316,-79.769992,5350528.53
15090818,Mississauga Rd n/of Steeles,43.627906,-79.776196,5350576.91
15090819,Mississauga Rd n/of Olivia Marie Rd,43.630119,-79.779163,5350576.91
15090820,Mississauga Rd n/of Wardsville Dr,43.633408,-79.783714,5350576.91
15090821,Mississauga Rd n/of Financial Dr,43.635809,-79.78703,5350576.91
15090822,Mississauga Rd opp Lionhead Golf Club Rd,43.63821,-79.790373,5350576.91
15090823,Mississauga Rd opp Embleton Rd,43.644186,-79.79855,5350576.91
15090824,Mississauga Rd at Queen St,43.647254,-79.801894,5350576.91
15090825,Mississauga Rd n/of Adamsville Rd,43.651233,-79.807886,5350577.04
15090826,Williams - Zum Queen West Station Stop NB,43.658624,-79.818007,5350577.0
15090838,Chinguacousy Rd n/of Drinkwater Rd,43.656829,-79.767917,5350572.1
15090839,Chinguacousy Rd btwn Queen St & Bonnie Braes Dr,43.663192,-79.777202,5350577.05
15090840,Chinguacousy Rd btwn Bonnie Braes Dr & Dusk Dr,43.659006,-79.771503,5350577.05
15090845,Jacksonville Dr w/of Goreway Dr,43.787516,-79.731924,5350576.47
15090846,Humberwest Pkwy at Airport Rd,43.769265,-79.729366,5350576.69
15090847,Humberwest Pkwy n/of Castlemore Rd,43.767288,-79.718958,5350576.69
15090848,Humberwest Pkwy n/of Crystal Hill Dr,43.769308,-79.721813,5350576.69
15090849,Humberwest Pkwy w/of Fairlawn Blvd,43.770101,-79.727132,5350576.69
15090850,Humberwest Pkwy e/of Airport Rd,43.769483,-79.72962,5350576.69
15090856,Havelock Dr n/of Merganser Cres (N),43.658611,-79.719853,5350528.2
15090857,Havelock Dr w/of Kesteven Cres (W),43.657353,-79.717163,5350528.2
15090858,Havelock Dr w/of Plover Place,43.659336,-79.714591,5350528.2
15090859,Havelock Dr s/of Bloomingdale Dr,43.661521,-79.716388,5350528.2
15090860,Chinguacousy Rd n/of Steeles Ave,43.647154,-79.755477,5350576.9
15090862,Charolais Blvd e/of James Potter Rd,43.649152,-79.761698,5350576.9
15090863,Dusk Dr w/of Chinguacousy Rd,43.655684,-79.768317,5350577.05
15090864,Drinkwater Rd n/of Vivians Cres (N),43.661471,-79.764787,5350572.09
15090865,Drinkwater Rd s/of Ripley Cres (S),43.662682,-79.766321,5350572.09
15090866,Drinkwater Rd n/of White Tail Cres (S),43.663807,-79.768714,5350572.09
15090867,Drinkwater Rd s/of Sunley Cres (N),43.665827,-79.771153,5350572.09
15090868,Drinkwater Rd opp Herkes Dr,43.66715,-79.772239,5350572.09
15090869,Drinkwater Rd s/of McCleave Cres (N),43.668469,-79.773627,5350572.09
15090870,Drinkwater Rd s/of Colonel Frank Ching Cres,43.669444,-79.775505,5350572.09
15090871,Drinkwater Rd at 709 Queen St,43.670189,-79.776683,5350572.09
15090872,Academic Dr s/of Queen St,43.672257,-79.773571,5350572.09
15090873,Drinkwater Rd s/of Queen St,43.66976,-79.776244,5350572.09
15090874,Drinkwater Rd n/of Ventura Ave,43.668697,-79.774253,5350572.09
15090875,Drinkwater Rd s/of Herkes Dr,43.667047,-79.772341,5350572.09
15090876,Drinkwater Rd n/of Sterritt Dr,43.665155,-79.770757,5350572.09
15090877,Drinkwater Rd opp White Tail Cres (S),43.663504,-79.768393,5350572.09
15090878,Drinkwater Rd s/of Spalding Gate,43.662514,-79.766357,5350572.09
15090879,Drinkwater Rd opp Vivians Cres (N),43.661398,-79.764923,5350572.09
15090880,Drinkwater Rd at Lockwood Rd,43.659524,-79.765503,5350572.09
15090881,Gardenbrooke Tr n/of Mulgrave St,43.790237,-79.677472,5350576.97
15090882,Gardenbrooke Tr n/of Penelope St,43.789098,-79.676082,5350576.97
15090883,Gardenbrooke Tr n/of Toddville Rd,43.787951,-79.675143,5350576.97
15090884,Gardenbrooke Tr e/of Thorndale Rd,43.785743,-79.67464,5350576.97
15090885,Gardenbrooke Tr at Castlebrooke Secondary School,43.78441,-79.676154,5350576.97
15090886,Panahill Dr opp St Grace Ct,43.782333,-79.678582,5350576.63
15090887,Panahill Dr e/of Templeton Crt,43.78126,-79.680981,5350576.63
15090888,Panahill Dr e/of Strathdale Rd,43.7811,-79.683408,5350576.63
15090889,Panahill Dr w/of Smithville Dr,43.780255,-79.685774,5350576.63
15090890,Panahill Dr opp Fieldview Dr,43.780775,-79.684712,5350576.63
15090891,Panahill Dr w/of Dilworth Chase Rd,43.781175,-79.680833,5350576.63
15090892,Skyvalley Dr n/of Riverglen St,43.778333,-79.679264,5350576.63
15090893,Skyvalley Dr n/of Cottrelle Blvd,43.77691,-79.677669,5350576.63
15090894,Westbrook Ave n/of Gorevale Dr,43.77558,-79.675477,5350576.87
15090895,Westbrook Ave n/of Trevino Cres (N),43.774577,-79.673981,5350576.87
15090896,Westbrook Ave n/of Don Minaker Dr,43.772976,-79.671751,5350576.87
15090897,Don Minaker Dr e/of Hampton Springs Dr,43.77083,-79.674075,5350576.87
15090898,Don Minaker Dr s/of Pasadena Ave,43.768697,-79.675375,5350576.87
15090899,Don Minaker Dr n/of Riverstone Dr,43.766996,-79.674299,5350576.87
15110201,Mississauga Rd s/of Howard Stewart Rd,43.632496,-79.783139,5350576.91
15110202,Sandalwood Pkwy e/of Creditview Rd,43.689118,-79.834828,5350576.81
15110203,Castlemore Rd w/of The Gore Rd,43.790371,-79.691402,5350576.63
15110204,Steeles Ave opp Polonia Ave,43.641643,-79.759935,5350528.52
15110205,Wanless Dr e/of Brisdale Dr,43.702247,-79.839254,5350576.53
16021501,Airport Rd opp Treeline Blvd,43.780736,-79.746168,5350576.66
16050901,Dixie Rd n/of Templehill Rd,43.752145,-79.778675,5350576.92
16050902,Mavis Rd n/of Clementine Dr,43.644281,-79.75128,5350528.52
16050903,WB Smart Centres - Walmart Plaza,43.77179,-79.77892,5350576.54
16050904,Biscayne Cres e/of First Gulf Blvd (S),43.677005,-79.712323,5350570.01
16050905,Biscayne Cres e/of Clipper Crt,43.677918,-79.709951,5350570.01
16050906,Biscayne Cres at 150 Biscayne Cres,43.680029,-79.710925,5350570.01
16050907,Biscayne Cres e/of First Gulf Blvd (N),43.68062,-79.71419,5350570.01
16050908,Bramalea Rd s/of Balmoral Dr,43.715362,-79.705014,5350560.0
16050909,Bramalea Rd n/of Balmoral Dr,43.715545,-79.705676,5350563.02
16062708,Sandalwood Pkwy w/of Sunny Meadow Blvd,43.755392,-79.755727,5350576.2
16062709,Sandalwood Pkwy e/of Bramalea Rd,43.755163,-79.756464,5350576.54
16090501,Bovaird - Zum Queen West Station Stop SB,43.666395,-79.829022,5350576.91
16090502,Mississauga Rd - Zum Queen West Station Stop EB,43.648416,-79.801026,5350576.91
16090503,Mississauga Rd - Zum Queen West Station Stop WB,43.648293,-79.801803,5350577.04
16090504,Bovaird - Zum Queen West Station Stop EB,43.667532,-79.828847,5350577.0
16090505,Queen St w/of Royal West Dr,43.649283,-79.800537,5350577.04
16090506,Ebenezer Rd e/of Royal Country Dr,43.770674,-79.665114,5350576.86
16090507,Ebenezer Rd e/of Alfonso Cres,43.7679,-79.668228,5350576.86
16090508,Ebenezer Rd e/of Don Minaker Dr,43.765173,-79.671138,5350576.86
16090512,Remembrance Rd w/of Clinton St,43.716709,-79.829758,5350576.98
16090514,Queen Mary Dr s/of Wanless Dr,43.712604,-79.826545,5350576.49
16090515,Ferforest Dr s/of Black Forest Dr,43.745032,-79.756942,5350576.17
16090516,Ferforest Dr s/of Black Oak Dr,43.744906,-79.757006,5350576.16
16090517,Hereford St s/of Edgeware Rd,43.616825,-79.773509,5350528.53
16090519,Veterans Dr s/of Kempsford Cres (S),43.683948,-79.844933,5350576.98
16090520,Veterans Dr n/of Buick Blvd,43.685501,-79.847649,5350576.98
16090523,Veterans Dr s/of Buick Blvd,43.685071,-79.847222,5350576.98
16090524,Veterans Dr n/of Fann Dr,43.684152,-79.845689,5350576.98
16090525,Veterans Dr s/of Sandalwood Pkwy,43.681479,-79.842111,5350576.99
16090527,Squire Ellis Dr btwn Quintette Cl & Belladonna Cir,43.813276,-79.724638,5350576.74
16090531,Ray Lawson Blvd e/of Rollingwood Dr,43.644275,-79.744566,5350528.51
16090532,Ray Lawson Blvd e/of Falstaff Dr,43.645436,-79.742629,5350528.51
16090537,Elbern Markell Dr opp Valleyway Dr,43.665436,-79.816756,5350577.0
16090538,Elbern Markell Dr n/of Canary Close,43.664318,-79.815016,5350577.0
16090539,Elbern Markell Dr n/of Williams Pkwy,43.663388,-79.812266,5350577.0
16090540,Elbern Markell Dr opp Lorenville Dr,43.662273,-79.809955,5350577.04
16090541,Elbern Markell Dr n/of Dalmeny Dr,43.661227,-79.807666,5350577.04
16090542,Elbern Markell Dr opp Junetown Cir,43.659898,-79.805476,5350577.04
16090543,Ingleborough Dr w/of Interlacken Dr,43.658857,-79.802632,5350577.04
16090544,Ingleborough Dr btwn Interlacken Dr and Intrigue,43.660259,-79.800904,5350577.04
16090545,Ingleborough Dr at Creditview Rd,43.661569,-79.799109,5350577.04
16090546,Creditview Rd n/of Fallowfield Rd,43.659172,-79.795674,5350577.04
16090547,Creditview Rd s/of Queen St,43.656612,-79.792213,5350576.91
16090549,Bonnie Braes Dr w/of Lloyd Sanderson Dr,43.651151,-79.783248,5350577.06
16090550,Bonnie Braes Drive btwn Seabrook Pl and Fallmeadow,43.652957,-79.781641,5350577.06
16090551,James Potter Rd s/of Queen St,43.663106,-79.78455,5350577.05
16090552,Chinguacousy Rd n/of Bonnie Braes Dr,43.661401,-79.774725,5350577.05
16090553,Bonnie Braes Dr btwn Allegro Dr and Heatherglen Dr,43.659734,-79.776353,5350577.05
16090554,Bonnie Braes Dr e/of Timercove Rd,43.657711,-79.778584,5350577.05
16090555,Bonnie Braes Dr e/of James Potter Rd,43.655611,-79.779789,5350577.05
16090556,Bonnie Braes Dr btwn Cranwood Cir and Ambiance Crt,43.653319,-79.781533,5350577.06
16090557,Bonnie Braes Dr e/of Creditview Rd,43.650893,-79.783843,5350577.06
16090559,Creditview Rd at Queen St,43.656736,-79.792084,5350577.06
16090560,Creditview Rd s/of Pathway Dr,43.658342,-79.794337,5350577.03
16090561,Ingleborough Dr w/of Creditview Rd,43.661465,-79.799502,5350577.04
16090562,Ingleborough Dr btwn Impulse Cir and Ivanhoe Crt,43.660283,-79.801118,5350577.04
16090563,Ingleborough Dr e/of Elbern Markell Dr,43.658817,-79.803005,5350577.04
16090564,Elbern Markell Dr s/of Junetown Cir,43.65965,-79.804821,5350577.04
16090565,Elbern Markell Dr n/of Deseronto St,43.661562,-79.808268,5350577.04
16090566,Elbern Markell Dr n/of Lorenville Dr,43.662385,-79.809863,5350577.04
16090567,Elbern Markell Dr s/of Williams Pkwy,43.663197,-79.811507,5350577.04
16090568,Elbern Markell Dr s/of Kalmia Rd,43.663975,-79.813281,5350577.0
16090569,Elbern Markell Dr s/of Valleyway Dr,43.665146,-79.816076,5350577.0
16090570,Elbern Markell Dr s/of Elwin Rd,43.666622,-79.817472,5350577.0
16090571,Elbern Markell Dr n/of Ashby Field Rd,43.667236,-79.820081,5350577.0
16090572,Elbern Markell Dr n/of Banbridge Cres (S),43.667451,-79.822982,5350577.0
16090573,Elbern Markell Dr s/of Lanark Cir,43.668556,-79.825928,5350577.0
16090574,Braidwood Lake Rd s/of Petworth Rd,43.723164,-79.807395,5350576.33
16090575,Kenpark Ave opp Burtree Dr (S),43.743377,-79.805362,5350576.04
16090576,Kenpark Ave n/of Burtree Dr (S),43.743584,-79.805529,5350576.04
16090577,Mayfield Rd e/of Summer Valley Dr,43.736682,-79.821945,5350576.31
16090578,Cresthaven Rd w/of Tournament Dr,43.725854,-79.819692,5350576.76
16090579,Braidwood Lake Rd opp Shadywood Dr,43.725932,-79.811181,5350576.33
16090580,Braidwood Lake Rd n/of Petworth Rd,43.72323,-79.807762,5350576.33
16103101,Peel Memorial Hospital - Route 8 / 25 WB,43.690966,-79.752355,5350571.01
16103103,Mississauga Rd s/of Financial Dr,43.634201,-79.785501,5350576.91
16103104,Peel Memorial Hospital - Route 8 EB / 24 WB,43.691043,-79.752487,5350571.01
17010203,James Potter Rd btwn Bonnie Braes & Timbercove,43.657124,-79.782095,5350577.05
17010204,James Potter Rd btwn Beechmont & Bonnie Braes,43.656866,-79.782345,5350577.06
17010205,Robert Parkinson Dr at Humberstone Cres,43.70131,-79.857768,5350576.98
17030601,Heart Lake Rd s/of Kayak Heights,43.730002,-79.772384,5350576.06
17030602,James Potter Rd s/of Borrelli Dr,43.661423,-79.782911,5350577.05
17030606,Creditview Rd s/of Remembrance Rd,43.698094,-79.848354,5350576.98
17030607,Creditview Rd s/of Kilkarrin Rd,43.70128,-79.852681,5350576.98
17030608,Ray Lawson Blvd at 300 Ray Lawson Blvd,43.653416,-79.73059,5350528.21
17030610,Timberlane Dr s/of Ray Lawson Blvd,43.652564,-79.73258,5350528.22
17030614,Timberlane Dr btwn Garden Gate Cir & Gurdwara Gate,43.648939,-79.731717,5350528.22
17050103,Wanless Dr btwn Brisdale Dr and Thornbush Blvd-4A,43.699921,-79.842543,5350576.98
17090503,Dixie Rd s/of Countryside Dr,43.754401,-79.781267,5350576.59
17090507,Russell Creek Dr n/of Inspire Blvd,43.762222,-79.78182,5350576.84
17090508,Russell Creek Dr s/of Dolbyhill Dr,43.75966,-79.779062,5350576.84
17090509,Countryside Dr w/of Russell Creek Dr,43.7584,-79.77753,5350576.84
17103008,Gordon Randle Dr n/of Layton St,43.804008,-79.740559,5350576.74
17103009,Gordon Randle Dr n/of Erintown Cir (N),43.802639,-79.736524,5350576.74
17103010,Gordon Randle Dr n/of Snaresbrook Cir (N),43.800804,-79.733093,5350576.74
17103011,Gordon Randle Dr n/of Countryside Dr,43.799354,-79.731013,5350576.74
17103012,Countryside Dr e/of Stanley Carberry Dr,43.796168,-79.733984,5350576.74
17103013,James Potter Rd s/of Semley St,43.665933,-79.792724,5350577.02
17103014,James Potter Rd s/of Richmead Rd,43.667887,-79.795447,5350577.02
17103015,James Potter Rd n/of Kirkbridge Crt,43.670339,-79.798294,5350577.02
17103016,James Potter Rd s/of Valleyway Dr,43.672711,-79.800088,5350577.02
17103017,James Potter Rd s/of Roundstone Dr,43.674454,-79.8027,5350577.02
17103018,James Potter Rd btwn Ashby Field Rd and Bovaird Dr,43.669766,-79.822374,5350577.0
17103019,James Potter Rd s/of Bovaird Dr,43.67088,-79.824221,5350577.0
17103020,Creditview Rd s/of Lagerfeld Dr,43.672269,-79.826501,5350577.0
17103021,Creditview Rd s/of Ganton Heights,43.675651,-79.828606,5350577.09
17103022,Mount Pleasant Village - Route 6 Stop,43.67544,-79.822085,5350577.09
17103023,Creditview Rd s/of Veterans Dr,43.675499,-79.829001,5350576.99
17103024,Creditview Rd n/of Lagerfeld Dr,43.672636,-79.827561,5350576.99
17103025,James Potter Rd at Bovaird Dr,43.67069,-79.824507,5350577.0
17103026,James Potter Rd btwn Bovaird Dr and Ashby Field Rd,43.669596,-79.822587,5350577.0
17103027,James Potter Rd n/of Ashby Field Rd,43.668858,-79.819983,5350577.0
17103028,James Potter Rd opp Roundstone Dr,43.67442,-79.803366,5350577.03
17103029,James Potter Rd n/of Valleyway Dr,43.672812,-79.800734,5350577.03
17103030,James Potter Rd opp Kirkbridge Crt,43.670519,-79.798878,5350577.03
17103031,James Potter Rd opp Richmead Rd,43.668099,-79.796354,5350577.03
17103032,James Potter Rd n/of Antibes Dr,43.666229,-79.793587,5350577.03
18010802,Financial Dr opp Shediac Rd,43.633688,-79.776289,5350576.91
18010803,Financial Dr opp Plentywood Dr,43.634387,-79.777826,5350576.91
18010804,Financial Dr s/of Sacramento Rd,43.635833,-79.779227,5350576.91
18010805,Financial Dr s/of Tilsonburg Ave,43.636895,-79.780646,5350576.91
18010806,Financial Dr s/of Mastersview Dr,43.637523,-79.78377,5350576.91
18010807,Financial Dr at Mississauga Rd,43.635672,-79.786468,5350576.91
18010808,Financial Dr e/of Elysian Fields Cir,43.633456,-79.79253,5350576.91
18010809,Financial Dr e/of Lower Thames Dr,43.632931,-79.794342,5350576.91
18010811,Lionhead Golf Club Rd e/of Lower Thames Dr,43.635075,-79.797367,5350576.91
18010812,Lionhead Golf Club Rd w/of Bushfield Cir (E),43.636613,-79.793576,5350576.91
18010813,Lionhead Golf Club Rd w/of Mississauga Rd,43.637311,-79.790335,5350576.91
18010814,Financial Dr e/of Mississauga Rd,43.635657,-79.786068,5350576.91
18010815,Financial Dr w/of Stonecrop Rd,43.637031,-79.784474,5350576.91
18010816,Financial Dr n/of Noble Oaks Rd,43.637208,-79.781652,5350576.91
18010817,Financial Dr n/of Wardsville Dr,43.636171,-79.780047,5350576.91
18010818,Sunnyvale Gate opp Pennyroyal Cres,43.757314,-79.72943,5350576.79
18010819,Sunnyvale Gate n/of Blue Diamond Dr,43.756132,-79.727316,5350576.79
18010820,Blue Diamond Dr e/of Village Lake Cir (E),43.753497,-79.72948,5350576.79
18010821,Blue Diamond Dr w/of Saffron Cir (W),43.753219,-79.729492,5350576.79
18010822,Sunnyvale Gate n/of Pennyroyal Cir (S),43.756286,-79.727273,5350576.79
18010823,Sunnyvale Gate s/of Bovaird Dr,43.757726,-79.729631,5350576.79
18030503,Winston Churchill Blvd at Maple Lodge Farms,43.614037,-79.80636,5350576.91
18030504,Queen - Zum Bovaird Station Stop NB,43.744174,-79.696358,5350576.78
18030505,Queen - Zum Bovaird Station Stop SB,43.742497,-79.694847,5350576.79
18043001,Winston Churchill Blvd n/of Steeles Ave,43.608244,-79.798382,5350576.91
18043002,Templehill Rd e/of Naperton Dr,43.750934,-79.779872,5350576.92
18043003,Ross Dr n/of Templehill Rd,43.750037,-79.781704,5350576.92
18043006,Financial Dr btwn Coastline Dr & Seapines St,43.62935,-79.766985,5350528.53
18043008,Chinguacousy Wellness Centre,43.749212,-79.741808,5350576.2
18043009,Ashby Field Rd e/of Elbern Markell Dr,43.668066,-79.819609,5350577.0
18090401,Veterans Dr btwn Fann Dr & Sandalwood Pkwy,43.683003,-79.843954,5350576.98
18090402,Brampton Gateway Terminal Route 8 Stop,43.665139,-79.734572,5350572.05
18090406,Veterans Dr n/of Monument Tr,43.686743,-79.849811,5350576.98
18090412,Robert Parkinson Dr s/of Mayfield Rd,43.702097,-79.859054,5350576.98
18090413,Edenbrook Hill Dr opp Mincing Trail,43.715369,-79.842031,5350576.98
18090414,Edenbrook Hill Dr n/of Clockwork Dr,43.714498,-79.840902,5350576.98
18090415,Clockwork Dr btwn Edenbrook Hill and Chinguacousy,43.713079,-79.84233,5350576.98
18090421,Veterans Dr n/of Hogan Manor Dr,43.687338,-79.851189,5350576.98
18090422,Veterans Dr n/of Gambia Rd,43.68623,-79.849257,5350576.98
18090423,Sandalwood Pkwy w/of Creditview Rd,43.688562,-79.836161,5350576.98
18090424,Remembrance Rd e/of Creditview Rd,43.698822,-79.848042,5350576.98
18090425,Remembrance Rd w/of Thornbush Blvd,43.700042,-79.846821,5350576.98
18090426,Remembrance Rd w/of Lloyd Cres,43.70153,-79.845279,5350576.98
18090427,Remembrance Rd w/of Brisdale Dr,43.7037,-79.843259,5350576.98
18090429,Creditview Rd n/of Wanless Dr,43.697014,-79.846342,5350576.98
18090430,Remembrance Rd w/of Creditview Rd,43.698252,-79.849032,5350576.98
18090431,Robert Parkinson Dr n/of Wanless Dr,43.694781,-79.848371,5350576.98
18090432,Deerhurst Dr at 510 Deerhurst Dr,43.749845,-79.678604,5350576.78
18090433,Deerhurst Dr at 420 Deerhurst Dr,43.748777,-79.674438,5350576.78
18090434,Deerhurst Dr n/of Armthorpe Rd,43.74673,-79.671287,5350576.78
18090435,Deerhurst Dr s/of Wentworth Crt,43.744487,-79.667927,5350576.78
18090436,Deerhurst Dr at Intermodal Dr,43.740518,-79.664565,5350576.78
18090438,Goreway Dr s/of Intermodal Dr,43.739358,-79.665878,5350576.78
18090439,Deerhurst Dr n/of Intermodal Dr,43.740976,-79.664504,5350576.78
18090440,Deerhurst Dr at Wentworth Crt,43.744559,-79.667765,5350576.78
18090441,Deerhurst Dr opp Armthorpe Rd,43.746498,-79.670664,5350576.78
18090442,Deerhurst Dr at 419 Deerhurst Dr,43.749214,-79.674754,5350576.78
18090443,Deerhurst Dr at Goreway Dr,43.749626,-79.679187,5350576.78
18090449,Kingknoll Dr w/of McLaughlin Rd,43.653486,-79.741177,5350528.31
18090450,Kingknoll Dr e/of Windmill Blvd,43.651834,-79.743097,5350528.31
18090451,Kingknoll Dr n/of Derby Rd,43.645376,-79.747114,5350528.5
18090452,Mountainash Rd n/of Judson Gate,43.776534,-79.752265,5350576.66
18090453,Mountainash Rd s/of Welland Rd,43.77773,-79.753885,5350576.66
18090454,Countryside Dr opp Frobischer Dr,43.776842,-79.75837,5350576.66
18090456,Heritage Rd at Amazon Fulfillment Centre YYZ4,43.617782,-79.787268,5350576.91
18090458,Sandalwood Pkwy e/of Robert Parkinson Dr,43.686991,-79.837661,5350576.99
18090459,Sandalwood Pkwy w/of Robert Parkinson Dr,43.686553,-79.838394,5350576.98
18090460,Mavis Rd at Rollingwood walkway,43.64144,-79.743217,5350528.51
19010701,Elbern Markell Dr n/of Waterwide Cres (N),43.666887,-79.818168,5350577.0
19030401,Bovaird Dr w/of Elbern Markell Dr,43.668788,-79.827396,5350577.0
19030402,McLaughlin Rd btwn Horwood Dr & Queen St,43.67697,-79.771969,5350573.05
19090300,Veterans Dr s/of Merrybrook Tr,43.687981,-79.851966,5350576.98
19090302,Veterans Dr at O'Connor Cres (S),43.693054,-79.859679,5350576.98
19090303,Veterans Dr opp Goderich Dr,43.694486,-79.861435,5350576.98
19090304,Veterans Dr s/of Goderich Dr,43.694326,-79.861498,5350576.98
19090305,Veterans Dr at Benhurst Cres (N),43.69264,-79.859332,5350576.98
19090306,Veterans Dr s/of Wanless Dr,43.688642,-79.853559,5350576.98
19090307,Robert Parkinson Dr n/of Guildhouse Dr,43.697905,-79.853027,5350576.98
19090308,Robert Parkinson Dr s/of Kilkarrin Rd,43.699287,-79.854946,5350576.98
19090309,Mount Pleasant Village - Route 27 / 28 Stop,43.675564,-79.821579,5350577.09
19090310,Remembrance Rd e/of Bucksaw St,43.705389,-79.841999,5350576.98
19090311,Remembrance Rd w/of Cohoe St,43.706728,-79.840969,5350576.98
19090314,Sandalwood Loop - Route 28 / 81 Stop,43.720653,-79.809058,5350576.34
19090317,Remembrance Rd w/of Hawtrey Rd,43.70729,-79.840648,5350576.98
19090318,Remembrance Rd e/of Brisdale Rd,43.704143,-79.843172,5350576.98
19090319,Remembrance Rd w/of Antoine St,43.702082,-79.844985,5350576.98
19090320,Remembrance Rd e/of Quasar St,43.700038,-79.847091,5350576.98
19090332,Creditview Rd n/of Veterans Dr,43.676229,-79.829153,5350576.99
19090337,Torbram Rd at Father Tobin Rd,43.770881,-79.756004,5350576.89
19090338,The Gore Rd s/of Mayfield Rd,43.819109,-79.726834,5350576.74
19090339,Mississauga Rd s/of Royal West Dr,43.66216,-79.822665,5350577.0
19102800,Castlemore Rd e/of McVean Dr,43.782915,-79.700105,5350576.73
20030200,Van Kirk Dr n/of Whitepoppy Dr,43.724242,-79.829727,5350576.77
20030201,Van Kirk Dr n/of Bramtrail Gate,43.720884,-79.824985,5350576.77
20030202,Father Tobin Rd e/of Fairservice Dr,43.758268,-79.770457,5350576.85
20090800,Williams Pkwy w/of Edvac Dr,43.760332,-79.700999,5350576.78
20090801,Clark Blvd e/of Dixie Rd,43.711093,-79.722411,5350563.01
20090803,Veterans Dr opp Remembrance Rd,43.690206,-79.856078,5350576.98
20110200,The Gore Rd n/of Alovera St,43.813638,-79.719612,5350576.74
21062800,James Potter Rd n/of Beechmont Dr,43.661226,-79.783149,5350577.06
21062801,Queen St w/of Highway 50,43.767014,-79.650317,5350576.65
21062802,Mountainash Rd n/of Father Tobin Rd,43.775407,-79.750734,5350576.66
21062803,Mountainash Rd s/of Father Tobin Rd,43.774891,-79.75024,5350576.88
21062804,Remembrance Rd w/of McLaughlin Rd,43.717911,-79.827937,5350576.98
21090600,Veterans Dr n/of Nightjar Dr,43.691222,-79.857659,5350576.98
21090601,Veterans Dr s/of Elverton Cres (S),43.691074,-79.857168,5350576.98
21090602,Castlemore Rd opp Valleycreek Dr,43.77549,-79.708585,5350576.73
21110100,Bramalea Rd n/of Inspire Blvd,43.769792,-79.778812,5350576.84
22010300,Bovaird Dr w/of Creditview Rd,43.670845,-79.825693,5350576.99
22080100,Bramalea Rd n/of Avondale Blvd,43.708959,-79.696923,5350561.0
22080101,Bramalea Rd at Dearbourne Blvd,43.709305,-79.696858,5350560.0
22080102,Steeles Ave at 1810 Steeles Ave,43.705942,-79.689605,5350560.0
22080103,Steeles Ave e/of Bramalea Rd,43.705198,-79.689823,5350560.0
22080104,Bramalea GO Station - Route 13/16 Stop,43.701954,-79.691084,5350561.0
22080105,Bramalea GO Station - Route 115 NB / BT On Demand Stop,43.701911,-79.691354,5350561.0
22080106,Bramalea GO Station - Route 15 SB/115 SB Stop,43.701857,-79.691638,5350561.0
22080107,Bramalea GO Station - Route 15/15A NB Stop,43.701803,-79.691894,5350561.0
22080108,Bramalea GO Station-Route 11/11A/511/A/C WB Stop,43.701996,-79.692158,5350561.0
22080109,Bramalea GO Station-Route 11/11A/511/A/C EB Stop,43.702159,-79.692426,5350561.0
22080600,The Gore Rd n/of Countryside Dr,43.811863,-79.717214,5350576.74
22080601,The Gore Rd n/of Grafton Cres,43.805754,-79.708919,5350576.73
22080602,The Gore Rd n/of Edgeforest Dr,43.802343,-79.704264,5350576.73
22080604,Creditview Rd s/of Mayfield Rd,43.704138,-79.856497,5350576.98
22103106,Squire Ellis Dr w/of Landview Rd,43.812261,-79.729213,5350576.74
22103107,Squire Ellis Dr w/of Martin Byrne Dr,43.812562,-79.727201,5350576.74
23010900,Mississauga Rd n/of Steeles Ave,43.627783,-79.776819,5350576.91
23030600,Countryside Dr w/of The Gore Rd,43.811483,-79.717127,5350576.74
23030601,Countryside Dr opp Everglade Dr,43.807519,-79.721516,5350576.74
23030602,Countryside Dr e/of Martin Byrne Dr,43.806276,-79.722824,5350576.74
23030603,Martin Byrne Dr s/of Arda Cres (S),43.80713,-79.724667,5350576.74
23030604,Martin Byrne Dr s/of Mugo Pine St,43.810134,-79.725774,5350576.74
23030605,Martin Byrne Dr n/of Squire Ellis Dr,43.813066,-79.726833,5350576.74
23030606,Martin Byrne Dr n/of Duet St,43.815023,-79.729061,5350576.74
23030607,Martin Byrne Dr s/of Mayfield Rd,43.816037,-79.730563,5350576.74
23030608,The Gore Rd n/of Squire Ellis Dr,43.815788,-79.722623,5350576.74
23050101,Queen St e/of Cherrycrest Dr,43.763426,-79.669314,5350576.65
23050102,The Gore Rd at Castlemore School,43.790069,-79.687501,5350576.63
23090400,Countryside Dr w/of Naperton Dr,43.752374,-79.783635,5350576.92
23090401,Dixie Rd s/of Inspire Blvd,43.758202,-79.786466,5350576.84
23090402,Dixie Rd s/of George Gray Dr,43.760166,-79.78908,5350576.84
23090403,Dixie Rd s/of Mayfield Rd,43.762189,-79.791721,5350576.84
23090405,Mayfield Rd w/of Russell Creek Dr,43.766321,-79.787912,5350576.84
23090406,Russell Creek Dr s/of Seymour Rd,43.764744,-79.785248,5350576.84
23090407,Edenbrook Hill Dr btwn Wanless Dr & Dolucci Cres,43.70915,-79.834121,5350576.98
23090408,Edenbrook Hill Dr s/of Remembrance Rd,43.711321,-79.835954,5350576.98
23090409,Edenbrook Hill Dr s/of Mincing Tr (South Leg),43.713297,-79.839031,5350576.98
23090410,Edenbrook Hill Dr n/of Minna Tr,43.714356,-79.840475,5350576.98
23090411,Edenbrook Hill Dr n/of Mincing Tr (North Leg),43.715634,-79.842201,5350576.98
23090413,Queen Mary Dr s/of Callahan Cl,43.720431,-79.83759,5350576.98
23090414,Queen Mary Dr opp Wainwright Dr,43.719188,-79.834895,5350576.98
23090415,Queen Mary Dr n/of Iguana Tr,43.717501,-79.832792,5350576.98
23090416,Queen Mary Dr s/of Remembrance Rd,43.715887,-79.830825,5350576.98
23090417,Queen Mary Dr n/of Wanless Dr,43.713424,-79.827683,5350576.98
23090418,Clockwork Dr btwn Fuitvale Cir & Boathouse Rd,43.709566,-79.845831,5350576.98
23090419,Clockwork Dr e/of Brisdale Dr,43.707157,-79.848049,5350576.98
23090420,Remembrance Rd e/of Chinguacousy Rd,43.708906,-79.838421,5350576.98
23090421,Remembrance Rd w/of Edenbrook Hill Dr,43.711199,-79.836415,5350576.98
23090422,Remembrance Rd w/of Emily St,43.712726,-79.835194,5350576.98
23090423,Remembrance Rd w/of Abercrombie Cres,43.714153,-79.833764,5350576.98
23090424,Remembrance Rd at Queen Mary Dr,43.715917,-79.831085,5350576.98
23090425,Remembrance Rd e/of McLaughlin Rd,43.717933,-79.828365,5350576.98
23090426,Remembrance Rd w/of Queen Mary Dr,43.716009,-79.831282,5350576.98
23090427,Remembrance Rd w/of Iguana Tr,43.714262,-79.833935,5350576.98
23090428,Remembrance Rd e/of Divers Rd,43.713211,-79.83506,5350576.98
23090429,Remembrance Rd e/of Edenbrook Hill Dr,43.71172,-79.836256,5350576.98
23090430,The Gore Rd s/of Castle Oaks Crossing,43.786687,-79.682895,5350576.63
23090431,McVean Dr at 9987 McVean Dr,43.781999,-79.699647,5350576.63
23090432,McVean Dr s/of Carl Finlay Dr,43.805185,-79.731033,5350576.74
23090433,McVean Dr s/of Squire Ellis Dr,43.808492,-79.735339,5350576.74
23090434,Countryside Dr w/of Gordon Randle Dr,43.79887,-79.730719,5350576.73
23090435,Countryside Dr w/of McVean Dr,43.801928,-79.727248,5350576.73
23090436,Chinguacousy Rd s/of Queen St (Rt 55 Stop),43.665745,-79.780859,5350577.05
23090437,Gore Meadows CC - Route 35/36 SB Stop,43.793525,-79.69583,5350576.73
23103001,Wanless Dr e/of McLaughlin Rd,43.716209,-79.82433,5350576.77
23103002,Remembrance Rd w/of Chinguacousy Rd,43.708624,-79.83911,5350576.98
24010800,Countryside Dr e/of John Carroll Dr,43.804467,-79.724819,5350576.74
24010801,John Carroll Dr btwn Elderbridge Rd and Carl Finlay Dr,43.807308,-79.728427,5350576.74
24010802,John Carroll Dr btwn Cloverhaven Rd and Venue Rd,43.810434,-79.731804,5350576.74
24042902,Veterans Dr s/of Remembrance Rd,43.690083,-79.855599,5350576.98
24042903,Exchange Blvd e/of Sun Pac Blvd,43.753264,-79.689581,5350576.78
24042907,McVean Dr n/of Countryside Dr,43.802645,-79.727596,5350576.74
24042910,Mayfield GO Park & Ride - Route 41 NB,43.846667,-79.697022,5350576.73
24042940,Mayfield GO Park & Ride - Route 41 SB,43.846854,-79.696636,5350576.73
24042941,Highway 50 s/of Castlemore Rd,43.802186,-79.668956,5350576.94
24042942,Highway 50 s/of Cottrelle Blvd,43.784132,-79.6585,5350576.62
24062409,Highway 50 n/of Bellchase Tr,43.792394,-79.663277,5350576.96
24062411,Clockwork Dr e/of Thornbush Blvd,43.704347,-79.85055,5350576.98
24062412,Creditview Rd n/of Clockwork Dr,43.702043,-79.8533,5350576.98
24062413,Clockwork Dr w/of Thornbush Blvd,43.703821,-79.850679,5350576.98
24062414,Clockwork Dr w/of Brisdale Dr,43.70673,-79.848293,5350576.98
24062415,Clockwork Dr btwn Hawtrey Rd and Benjamin Thorne Rd,43.709548,-79.845653,5350576.98
24072906,Heart Lake Rd s/of Sandalwood Pkwy,43.736205,-79.780357,5350576.93
24072907,Heart Lake Rd s/of Ecopark Cl,43.747904,-79.796392,5350576.92
24102800,Financial Dr w/of Mississauga Rd,43.634772,-79.787469,5350576.91
24102801,Financial Dr at Rivermont Rd,43.631056,-79.797161,5350576.91
24102802,Financial Dr at Heritage Rd,43.628353,-79.799892,5350576.91
24102803,Heritage Rd at Merrimac Dr,43.634858,-79.809378,5350576.91
24102804,Rivermont Rd s/of Gladmary Dr,43.638028,-79.807778,5350576.91
24102805,Rivermont Rd s/of Merrimac Dr,43.637383,-79.805914,5350576.91
24102806,Rivermont Rd s/of Fordham Rd,43.636585,-79.803583,5350576.91
24102807,Rivermont Rd n/of Ferdinand Dr,43.635528,-79.801803,5350576.91
place_4CRN,Downtown Terminal,43.686933,-79.762487,5350574.0
place_BLGO,Bramalea GO Station,43.701928,-79.691858,5350561.0
place_CITY,Bramalea Terminal,43.718956,-79.720601,5350563.01
place_GATE,Brampton Gateway Terminal,43.666101,-79.733925,5350572.05
place_GOMD,Gore Meadows Community Centre,43.793618,-79.69563,5350576.73
place_HTLK,Heart Lake Terminal,43.727947,-79.798172,5350576.09
place_HUMA,Hurontario St & Mayfield Rd,43.732754,-79.823648,5350576.76
place_JPCH,James Potter Rd & Charolais Blvd,43.648724,-79.761497,5350576.9
place_JPQU,James Potter Rd & Queen St,43.663271,-79.785096,5350577.06
place_MIST-W,Mississauga Rd and Steeles Ave - WB,43.626772,-79.776992,5350576.91
place_MPGO,Mount Pleasant GO Station,43.674543,-79.822225,5350577.0
place_MPVL,Mount Pleasant Village,43.675423,-79.82231,5350577.09
place_PMH,Peel Memorial Hospital,43.691003,-79.752419,5350571.01
place_QU50-W,Queen St & Highway 50 - WB,43.767099,-79.64965,5350576.65
place_SHER,Sheridan College,43.656126,-79.741013,5350528.21
place_SPTE,Trinity Common Terminal,43.73109,-79.763603,5350576.93
place_SWLP,Sandalwood Loop,43.720987,-79.808504,5350576.34
place_WAMG,Wanless Dr & McLaughlin Rd,43.715545,-79.824774,5350576.98
